,name,state_name,dist_wind_,land_wind_,com_pv_tec,resid_pv_t,util_pv_te,longitude,latitude
0,Zapata,Texas,2876998.82,15732926.06,14121.79,29707.55,152028996.91,-99.16890618309964,26.999664382235924
1,Zavala,Texas,1894594.84,18074002.69,27700.3,26136.28,191549852.94,-99.76060321884738,28.8661977378236
2,McMullen,Texas,1461356.25,18944452.3,11173.97,2116.89,166058173.79,-98.56749073898008,28.34905000228968
3,Live Oak,Texas,7730893.27,19677746.8,42351.39,28151.57,147176682.62,-98.12478349194015,28.35136692775269
4,Refugio,Texas,2831017.99,8630486.13,23954.66,21571.24,101290200.41,-97.1666229573429,28.326380251659923
5,Nueces,Texas,11757284.39,10556578.47,565031.44,841071.19,103322186.3,-97.62719022379598,27.724379950986588
6,Goliad,Texas,5879006.86,10284738.2,29770.57,22106.29,118767489.52,-97.42647937685805,28.65707551000779
7,Gonzales,Texas,10402449.98,12979919.55,104505.69,39700.15,142238513.59,-97.49252366039575,29.456737109703468
8,Fayette,Texas,12594024.74,10532990.65,135203.64,77502.18,121746756.55,-96.91972530975261,29.876776975150324
9,Comal,Texas,7251695.8,6504654.82,671987.42,326348.46,38588249.19,-98.27823486351507,29.808176892193856
10,San Patricio,Texas,7338162.56,10156304.88,113908.68,177550.92,91783014.32,-97.5186346529378,28.009545657920025
11,Colorado,Texas,8516851.48,9935690.53,110295.35,59279.19,128021977.42,-96.5262938766487,29.620810751750938
12,Duval,Texas,6780255.18,29456451.78,34447.72,29694.96,262735627.71,-98.50890228857756,27.681332616407232
13,Starr,Texas,7498135.88,20975146.26,85276.39,144455.85,180207811.94,-98.73845486708493,26.562116970624142
14,Edwards,Texas,6568929.24,51381972.94,6972.65,7666.29,156585990.56,-100.30473729747192,29.982615608392845
15,Brooks,Texas,2482723.28,15432379.61,16694.51,16488.45,140744289.2,-98.21871577167059,27.031568185440893
16,Guadalupe,Texas,7300145.21,7598577.0,500078.02,413703.15,89602524.1,-97.94860230285947,29.583021459321905
17,Galveston,Texas,8227730.84,182499.76,728533.75,856201.95,18120039.73,-94.96338505535739,29.393882189194148
18,Frio,Texas,4463098.04,13469475.08,36549.93,31690.23,162120039.81,-99.10827502568715,28.867795387794647
19,Fort Bend,Texas,10680480.82,5651545.61,1553098.59,1838404.17,84925701.79,-95.7708032755062,29.527573180387044
20,Maverick,Texas,1915294.39,17433905.55,70276.84,135864.33,180708066.89,-100.31448956564276,28.74256082976592
21,Jackson,Texas,5602186.31,10365034.05,45855.78,37259.09,112966458.96,-96.57874606910448,28.955752790149422
22,DeWitt,Texas,10116160.19,11544672.89,111531.42,54072.16,121593416.88,-97.35679667190392,29.082061997405333
23,Dimmit,Texas,2581086.48,16488177.64,18869.26,25741.04,196879338.2,-99.75672606309375,28.422529431654077
24,Matagorda,Texas,7916029.76,8710420.28,90291.81,91308.05,121650386.88,-95.98553130212723,28.866839559676876
25,Medina,Texas,11099775.17,16577707.54,195756.73,94304.19,157118680.0,-99.11013276135522,29.355695470093423
26,Hidalgo,Texas,22770911.64,14672812.09,1401857.68,1929556.16,190515532.25,-98.18111281597972,26.39671952669338
27,Chambers,Texas,3901139.42,3520855.11,183821.1,99595.87,51833731.15,-94.60824651436063,29.739032457668333
28,Calhoun,Texas,3437158.64,3327959.92,47618.12,61367.56,43669641.89,-96.64735868584489,28.490759415979916
29,Caldwell,Texas,6753603.69,6044512.54,128964.96,75522.79,70431627.43,-97.61996390201813,29.83701163225521
30,Hays,Texas,8794231.12,8766471.66,457874.53,412394.47,56744337.13,-98.03107048753026,30.057985440806704
31,Harris,Texas,31287779.68,1875590.85,10919780.76,8669908.5,58522609.71,-95.39228434680135,29.857301003319844
32,Cameron,Texas,21844374.64,4577655.5,735973.54,869292.76,85811666.28,-97.53184738794457,26.127809475508165
33,Webb,Texas,7690794.37,56985634.14,349974.3,466155.47,492786120.96,-99.33153978994211,27.761057104022306
34,Waller,Texas,5346213.04,4265720.43,223812.0,83547.21,65273351.72,-95.98763590847514,30.011097117037394
35,Washington,Texas,7146051.45,6817151.17,238996.27,87388.65,72131802.42,-96.40344813220642,30.214577403571408
36,Kleberg,Texas,2967476.26,10635658.42,58044.52,66900.96,108724407.38,-97.73378808829371,27.4341559442085
37,Kinney,Texas,1845117.31,25676090.48,8351.63,7706.93,159893718.43,-100.41795431759016,29.350216838641945
38,Bandera,Texas,8687682.41,9564779.79,49549.07,54270.23,35911366.42,-99.24628230482433,29.747188162095522
39,Atascosa,Texas,9944695.26,15063263.09,110199.16,97295.35,175415540.43,-98.52794671185607,28.890674518741612
40,Austin,Texas,7486064.6,6487207.14,180333.33,78047.35,80769905.75,-96.27790800225645,29.886927153993682
41,Wilson,Texas,8505186.43,11011303.34,186470.26,117626.23,113236561.56,-98.08657337759158,29.174002380277674
42,Jim Wells,Texas,7694743.92,12281089.91,94392.9,100129.39,125152743.92,-98.08993921791968,27.731284857165626
43,Jim Hogg,Texas,1806249.08,24571141.39,15065.76,14511.06,178341856.89,-98.69729762625009,27.04339756380324
44,Bee,Texas,7416735.45,12313030.33,61732.21,61295.13,123942138.1,-97.74119209896581,28.417400207465196
45,Bexar,Texas,15754904.17,5690156.8,5749218.88,4916184.75,81365663.15,-98.52003839753161,29.448951730243834
46,Victoria,Texas,6778140.38,9850471.81,176438.31,213946.82,113494273.46,-96.97176351032,28.7964152294739
47,Val Verde,Texas,6699529.37,60180269.9,66964.63,114665.89,221521339.2,-101.15174569309995,29.892996641581966
48,Uvalde,Texas,7606072.31,22023954.05,67263.74,61361.34,156089253.47,-99.76219910739279,29.357329186164744
49,Kenedy,Texas,718436.53,18390291.16,4223.54,525.62,193218618.17,-97.71870254266881,26.928113888133737
50,Kerr,Texas,12039573.11,21201885.76,178048.04,138701.6,82424885.24,-99.35010321841598,30.061530928885894
51,Aransas,Texas,2345890.03,414005.44,38885.85,73609.06,10547480.53,-96.99729009004555,28.13308054214938
52,Wharton,Texas,10047022.7,13362238.65,271831.3,103397.34,149921872.77,-96.22213493448267,29.27787004976935
53,Willacy,Texas,4373284.04,8125481.5,33725.92,47986.03,79156184.12,-97.67358275969914,26.470263010774854
54,Real,Texas,4853230.29,10960152.35,6334.56,7884.25,26219916.77,-99.8221297491216,29.83177601786418
55,Kendall,Texas,7176550.92,10356968.91,130348.02,104400.27,34171234.17,-98.71155372058114,29.94469862881701
56,Karnes,Texas,7774496.28,12265864.23,39791.13,32543.78,106511264.23,-97.85940065000327,28.905739136781527
57,Brazoria,Texas,13210288.93,4760063.62,736214.16,811213.17,109994712.61,-95.45515650944898,29.190842175236632
58,La Salle,Texas,3361021.73,17471145.53,13383.96,12878.38,215035591.38,-99.09968868852533,28.34506880961384
59,Lavaca,Texas,9594029.88,10798561.36,137518.19,59627.48,130788259.28,-96.93014444097247,29.38433990406354
60,Lafayette,Louisiana,5590934.72,584245.86,2201195.45,546898.3,22050169.51,-92.06397374183476,30.20628391577031
61,Lafourche,Louisiana,4319685.36,562445.36,407772.59,280610.47,26140862.91,-90.44428513067739,29.579363047663225
62,Jefferson,Louisiana,3072638.63,1434.86,1701736.42,1671561.81,1287772.2,-90.13438819491739,29.82301432406209
63,Okeechobee,Florida,5082757.05,1423468.67,181175.84,75226.55,68457353.61,-80.8885574314465,27.38628409772837
64,Orange,Florida,8218776.58,289735.7,5221253.12,2524268.62,29232249.01,-81.3238026507592,28.514714040926574
65,Osceola,Florida,4515779.67,1311685.38,985189.16,564891.96,93071665.69,-81.14928007836039,28.062644398106116
66,Palm Beach,Florida,9296120.58,7791357.07,4090482.99,2922818.23,126046227.68,-80.46748922806675,26.646893099368903
67,Orleans,Louisiana,3061039.54,0.0,1020449.84,903061.13,651979.72,-89.9310652918943,30.068827236877226
68,Putnam,Florida,6747613.18,2027022.42,203562.79,144341.26,55978049.42,-81.74424023483044,29.608605705585884
69,Cameron,Louisiana,3992034.34,1080270.28,144007.42,15681.62,23118082.31,-93.19308463585718,29.875147553417637
70,Lake,Florida,8400419.72,1183903.19,853603.27,825628.08,45163738.54,-81.71133696257716,28.761487238835183
71,Lafayette,Florida,2123421.28,1370379.81,16832.82,15933.11,40953341.18,-83.18116252091066,29.985558372248036
72,Indian River,Florida,3654424.46,1343736.91,586617.9,412051.93,33611691.62,-80.6153926482339,27.69284739956353
73,Hardee,Florida,3841705.51,1546807.71,58174.72,49407.57,64646569.66,-81.80993650596362,27.49270127962194
74,Glades,Florida,2652725.17,2144771.29,30470.84,19264.46,82196363.95,-81.18880612394831,26.95647764457913
75,Gilchrist,Florida,2716693.42,2869646.6,32202.99,31933.31,44667363.33,-82.80034942767317,29.725914505652284
76,Gulf,Florida,1535626.25,229986.67,35994.4,35971.43,16756115.33,-85.22676355682589,29.955794201595662
77,Ascension,Louisiana,2360572.03,503003.42,56690.07,302444.86,14561806.79,-90.91127231544952,30.203498366071823
78,Pinellas,Florida,4116906.06,0.0,2732155.39,2186011.14,1239721.43,-82.72238755615945,27.930875989040043
79,Highlands,Florida,8241048.03,2606499.18,323467.67,260089.29,101063009.73,-81.34098821382537,27.34337265134696
80,Hillsborough,Florida,8506146.63,278295.34,5016013.96,2763401.24,52036786.65,-82.30761712398785,27.930041651572342
81,Hendry,Florida,3992196.44,3530457.67,149778.33,61185.27,106227973.1,-81.16586149075499,26.55347671181655
82,Hernando,Florida,4734009.89,1301024.44,414153.95,548176.37,27288172.71,-82.42063309963764,28.552781523212726
83,Union,Florida,1680886.21,433931.08,32792.08,16272.24,26487779.6,-82.37140955693782,30.043885520584755
84,Taylor,Florida,3026634.33,1198604.53,69768.89,44364.12,76762046.37,-83.60301388687894,30.04765451785378
85,Collier,Florida,5317610.53,518217.31,995949.56,703968.78,33352029.42,-81.34024443616788,26.117471360954728
86,DeSoto,Florida,3256793.74,2295682.61,104842.92,65498.79,69560512.56,-81.80934045747853,27.186303316796547
87,Dixie,Florida,2252186.47,1100161.34,30524.08,30385.59,51120167.12,-83.15788265557188,29.609910228714522
88,Sarasota,Florida,4079134.76,92950.03,1325682.38,1195145.54,25838717.95,-82.32210894708605,27.180430888712486
89,Seminole,Florida,3150964.95,34457.77,1445496.96,1032927.91,5201561.22,-81.23632378821289,28.717064943190525
90,St. Lucie,Florida,5248483.26,2127913.68,907905.34,748176.31,50008175.89,-80.482902921411,27.375873457561024
91,Sumter,Florida,2811867.76,1088701.47,130413.99,428381.64,29780106.59,-82.0809850748975,28.704716432306043
92,Levy,Florida,7274259.94,5279094.39,104303.65,71536.94,103681193.44,-82.73898299911693,29.321564745164906
93,Lee,Florida,13946740.09,135792.7,1957515.79,2173896.03,28562651.84,-81.82112149723513,26.579179420484326
94,Assumption,Louisiana,2030959.22,1379658.47,101637.54,60521.26,17447418.31,-91.06258189099744,29.90077439159883
95,Iberia,Louisiana,4095459.43,1596427.58,220447.72,159950.66,28318099.88,-91.73119428659074,29.892957075559142
96,Wakulla,Florida,2321707.54,474019.02,51113.71,64796.07,15654686.61,-84.40277041958899,30.16979987739278
97,St. Johns,Florida,4210429.83,703925.27,593958.57,555718.3,40572119.38,-81.44362858802118,29.90185471961578
98,Volusia,Florida,8167547.64,400635.97,1721417.04,1306364.43,56324596.26,-81.19278703624695,29.06061593065067
99,St. Mary,Louisiana,2515960.91,786624.91,172771.37,124787.37,20629347.07,-91.45105002519882,29.719650047330568
100,Pasco,Florida,4292581.66,761393.16,1250419.12,1228125.13,44354433.92,-82.39122466504877,28.309240566230596
101,Polk,Florida,12656614.07,2221662.96,2122848.72,1406446.3,128947444.93,-81.6975475952042,27.948911920816535
102,Terrebonne,Louisiana,3133523.85,158652.22,589471.72,247963.07,11360469.65,-90.86368778746217,29.414979161300195
103,Franklin,Florida,1323215.7,50733.63,54732.05,27224.43,4364600.97,-84.81676544184228,29.877566712952376
104,Flagler,Florida,2527629.41,510760.04,281350.98,281907.96,31128047.43,-81.31410368640593,29.46059115112289
105,Brevard,Florida,7561807.79,697853.42,1832985.71,2729303.12,34226102.22,-80.74328564196239,28.264853399096243
106,Bradford,Florida,2035831.49,464545.54,107830.55,49237.02,31315624.46,-82.16889230903989,29.95012790803323
107,Alachua,Florida,7510365.35,2967493.0,849011.3,467545.89,92640056.8,-82.35763901799582,29.674823588819567
108,Clay,Florida,3181734.16,1462644.81,605668.94,484853.62,37859177.62,-81.85784732120027,29.983028348547695
109,Broward,Florida,5974314.13,29423.45,5338034.93,4021363.53,4447933.98,-80.48753734071927,26.15181539007612
110,Charlotte,Florida,7891321.65,798584.01,526311.63,779339.62,43215954.05,-81.89819351621895,26.90744886940133
111,Citrus,Florida,7500211.3,2233170.26,417404.95,452993.53,35010727.17,-82.46967617188966,28.850406897496523
112,Vermilion,Louisiana,10396074.72,7157473.63,612145.22,153148.91,87829164.44,-92.32390875026604,29.84548978554356
113,Plaquemines,Louisiana,2183891.13,244232.08,170187.84,47111.32,7721188.0,-89.6622228789612,29.474481563231432
114,St. James,Louisiana,1202188.7,925402.33,133819.3,60778.3,13248965.38,-90.79621814190087,30.026302957461283
115,St. John the Baptist,Louisiana,935654.33,86956.82,162448.31,125868.86,5330114.11,-90.50749928024314,30.113478561297423
116,St. Charles,Louisiana,982564.96,114316.25,222132.49,148940.22,5329781.99,-90.35807585071834,29.91320519418285
117,St. Bernard,Louisiana,793148.69,9253.19,170504.87,129819.68,1280383.49,-89.57498569938525,29.8726686685304
118,Monroe,Florida,1937963.92,0.0,411144.13,177331.35,0.0,-81.0500682141343,25.423117973492825
119,Miami-Dade,Florida,12299945.41,60502.34,6822307.61,4310032.0,19685351.99,-80.56835132815657,25.614811616732222
120,Martin,Florida,3082949.2,1140338.9,538827.58,378925.63,36885904.97,-80.43542676144862,27.075100968022646
121,Marion,Florida,13481823.78,7834409.54,1213786.0,928766.48,103131643.14,-82.05679763503197,29.210205639956897
122,Manatee,Florida,5179126.55,1093112.77,970433.13,817632.11,58780507.24,-82.298390085335,27.471332380696598
123,Morris,Kansas,7383642.01,16415730.32,23012.89,20057.33,88909456.21,-96.64982266291098,38.68741998745641
124,Butte,California,10192767.09,9515367.85,1174109.61,449867.71,90498030.11,-121.6006264217578,39.666983965427455
125,San Juan,New Mexico,19117022.2,64679938.39,253056.92,234396.89,548115490.08,-108.32059573337091,36.50846986076568
126,San Miguel,New Mexico,12063929.68,67277383.02,33200.14,63637.02,376129596.66,-104.8158582999071,35.480285690061066
127,Roosevelt,New Mexico,8300670.1,54739055.93,44275.83,43698.44,415111915.85,-103.48017146069017,34.02130949893256
128,Sandoval,New Mexico,10822073.43,36137953.92,139233.76,407952.93,225141744.77,-106.86592779065178,35.68874924123948
129,Jefferson,Kansas,10166029.38,11097761.13,51746.39,61543.87,51805918.48,-95.38339548316152,39.2358030047003
130,Santa Fe,New Mexico,14325294.55,22019447.38,238004.67,473778.66,142752240.22,-105.97612997627829,35.50685952952509
131,Pushmataha,Oklahoma,8777367.2,15163441.16,38273.87,30019.1,70397397.34,-95.37579000772425,34.416202838290786
132,Alpine,California,1129666.47,230467.63,5297.23,3676.53,566237.71,-119.8207368420352,38.59734350591912
133,Ellsworth,Kansas,6095096.79,17178296.38,38823.56,21582.01,88764766.24,-98.20477432760504,38.696641301340115
134,Pittsburg,Oklahoma,16256977.27,20104305.66,206172.07,128088.7,97618216.14,-95.74843634445031,34.92390191791733
135,Randall,Texas,10419639.42,19837608.28,907518.47,389818.6,132130332.79,-101.89693660880909,34.965867208937595
136,Pontotoc,Oklahoma,11441424.26,13478326.3,173697.66,95806.05,83932245.89,-96.68437416322084,34.72806494491921
137,Navarro,Texas,14497118.38,17325546.54,237092.05,106222.58,139810188.4,-96.4723056292223,32.04702687361422
138,Nacogdoches,Texas,8646145.75,4523986.54,155594.05,112244.72,67590799.13,-94.6158437735838,31.615999794090182
139,Motley,Texas,2368466.34,24063892.96,21314.5,3997.43,128187394.41,-100.77981175793774,34.074108496785975
140,Morris,Texas,2890800.31,1678654.74,73575.6,36221.25,23521917.91,-94.73265090820263,33.113524987779044
141,Moore,Texas,3178751.71,21462906.21,270806.86,51566.45,130787807.62,-101.89292046979372,35.83769336514632
142,Yoakum,Texas,2647166.16,17911559.54,208318.24,21990.07,131520285.72,-102.82782817574027,33.173013238943184
143,Madison,Texas,4822955.82,4181301.41,64416.91,26357.12,56558250.78,-95.92835929757968,30.965537572591977
144,Hale,Texas,10842354.49,23812137.89,485159.72,91607.79,164754585.85,-101.82688172007369,34.07052385950076
145,Grayson,Texas,20531191.05,16568444.89,470920.61,341141.63,118891098.32,-96.67766178281849,33.62689151917415
146,Deaf Smith,Texas,6229517.15,38569692.56,356171.6,55883.71,247549758.88,-102.60495344196289,34.9660388810524
147,Jackson,Oregon,7290040.31,5187487.58,536874.99,315651.59,22175154.85,-122.72844802357868,42.43214500122454
148,Dawson,Texas,4756358.07,18471769.54,94220.5,39005.07,149969060.77,-101.9476824753144,32.74251914064641
149,Harney,Oregon,5093777.06,96809004.11,38093.09,14576.94,637557924.96,-118.96786522485327,43.06402672369024
150,Llano,Texas,7073471.12,14234038.35,67200.86,64082.65,103274959.16,-98.68394268729148,30.70561914385264
151,Dallas,Texas,24709016.03,409887.64,5361472.47,4764385.39,23116777.97,-96.7778169035852,32.766605380619765
152,Limestone,Texas,10963591.18,14646999.55,75587.29,56339.86,126409506.22,-96.58053764404832,31.54546700312574
153,Dallam,Texas,3334466.63,30017480.55,108852.7,17217.63,251088935.26,-102.60222943398543,36.277886700481325
154,Tehama,California,10161780.46,18827842.87,451636.7,136420.77,108651550.85,-122.23389890586168,40.12570930487787
155,Holt,Nebraska,13048674.13,44272756.65,19672.8,31214.28,302253192.06,-98.78382508577627,42.45570705785033
156,Kane,Utah,3814986.24,8510216.74,12393.28,19444.95,36626011.43,-111.88784741753769,37.285074934972144
157,Juab,Utah,1729110.58,34210006.06,26051.83,21398.15,263234121.04,-112.78482138929728,39.702617163160625
158,Iron,Utah,7606429.17,34159857.77,116883.99,86486.71,251774448.02,-113.28927384738414,37.859164684582645
159,Hamilton,Nebraska,8993359.94,13283847.37,49091.09,34292.03,74218810.59,-98.02320873931893,40.87356161062061
160,Harlan,Nebraska,3510701.88,10943429.44,8401.36,12012.76,61625355.69,-99.40465944152974,40.17648936796463
161,Hayes,Nebraska,1944542.85,16086566.23,7631.73,3509.79,66619529.29,-101.06184658082802,40.524789415741
162,Hitchcock,Nebraska,2924791.21,14285919.56,11910.17,10197.82,70760765.65,-101.04227053336695,40.176342834440916
163,Carson City,Nevada,1161482.27,571290.58,268449.69,65102.47,1004195.36,-119.74648311495812,39.150777695238446
164,Taylor,Iowa,7633080.95,12183079.35,25806.89,18546.43,50169347.49,-94.69648087043048,40.73743017126935
165,Lipscomb,Texas,2549216.7,25192576.99,76558.16,10575.06,129794391.57,-100.27311587390317,36.277712576501244
166,Morton,Kansas,2030568.26,12390044.27,21046.37,8991.3,117298047.22,-101.7992750902396,37.19142626308293
167,Elmore,Idaho,6424821.26,16654359.09,22631.13,43885.27,92499843.09,-115.46920327067276,43.35385217108352
168,Esmeralda,Nevada,1095556.79,39632809.17,13313.44,1392.87,250022744.47,-117.63236936622005,37.78470051626678
169,Greenwood,Kansas,7555696.11,26096990.12,38182.15,20707.14,127738827.86,-96.23264751539789,37.87779592155385
170,Pottawattamie,Iowa,18924433.6,20756332.94,271348.8,198666.29,60868598.02,-95.54230115534273,41.33661669972645
171,Harper,Kansas,5467676.51,19293859.62,24787.09,20012.9,119243369.98,-98.07551406443937,37.191648302582855
172,Gage,Nebraska,14990954.8,20284500.29,69510.44,70707.43,109344085.52,-96.68948258403985,40.26193253852924
173,Furnas,Nebraska,3831498.25,13069562.52,25780.54,16464.89,76282213.5,-99.91228448664747,40.17647926996365
174,Frontier,Nebraska,3350942.19,19830671.17,9980.0,9348.79,76284263.65,-100.3941935880278,40.53008237168434
175,Franklin,Nebraska,3982175.77,12439386.05,11563.57,12727.33,65711688.13,-98.95280310002035,40.17635915631997
176,Butler,Kansas,20976880.75,30953377.7,196640.71,180757.36,191442039.25,-96.83907971932787,37.78127854767405
177,Hamilton,Kansas,1690283.57,23197189.83,13750.25,7874.05,156467830.71,-101.79124648207092,37.999182556749794
178,Garden,Nebraska,3260354.55,32801886.63,11467.67,6926.4,158688059.51,-102.33541156722283,41.61947738100904
179,Gregory,South Dakota,6656059.71,19279512.66,3766.55,12941.34,75283535.3,-99.18562204983104,43.19239928429793
180,Yuma,Colorado,9648145.87,50005917.89,91230.79,24158.47,321427729.17,-102.42424782928332,40.00291746926346
181,Washington,Colorado,7673256.04,54490110.04,58030.85,13113.46,370757739.05,-103.201280702148,39.97105208394271
182,Weld,Colorado,19998469.17,46390842.98,795391.37,525655.02,542028575.65,-104.3925200911274,40.55483100888954
183,Greeley,Kansas,1142566.45,18945059.91,8054.35,4288.07,124101768.39,-101.80600854647783,38.480523200399396
184,Bent,Colorado,2764285.47,28477790.29,20900.03,11237.17,217593601.54,-103.07167069430486,37.955126471808086
185,Boulder,Colorado,7585153.52,902234.97,862217.67,465914.96,15507565.14,-105.35771659643792,40.09246369332295
186,Broomfield,Colorado,622223.02,7026.09,153937.7,112907.5,1813954.21,-105.05284369623911,39.954019817150005
187,Chaffee,Colorado,8611732.77,1454518.7,50140.95,63702.9,3632180.3,-106.19411823535593,38.74685435109645
188,Cheyenne,Colorado,2420636.26,39809648.32,22201.74,4915.66,279624173.11,-102.60340432059085,38.82793183880923
189,Clear Creek,Colorado,3865187.24,268602.51,35662.21,26770.59,0.0,-105.6443005901875,39.68906935299517
190,Washoe,Nevada,11844395.1,51526704.11,1705293.28,596628.14,269166398.02,-119.66370335017284,40.66390607778092
191,White Pine,Nevada,3149168.47,76386694.77,50070.8,21661.36,548049940.93,-114.90158924902379,39.442160329863896
192,Union,New Mexico,5497644.12,84131308.08,128660.08,11556.79,476062231.28,-103.47100695870913,36.481762226491796
193,Socorro,New Mexico,5912202.47,66871145.05,22919.98,30524.26,336235926.89,-106.9303175201154,34.007241727544226
194,Sierra,New Mexico,4107662.59,41983100.76,9435.2,24491.34,257561105.23,-107.19249453046115,33.13046549178278
195,Torrance,New Mexico,9282410.88,67285911.36,18514.04,37091.2,433211797.42,-105.85076535220205,34.64048239476529
196,Taos,New Mexico,9620202.06,7126349.27,38139.79,87334.25,74673634.48,-105.63092711594453,36.578290016631364
197,Millard,Utah,4228285.84,81231829.3,57556.83,29355.24,663831545.14,-113.10046378322576,39.07380500829712
198,Brown,Minnesota,11902166.43,8952986.26,135649.88,70220.18,69537252.79,-94.72754421078028,44.24213126024645
199,Oldham,Texas,1790331.96,34669392.24,53512.69,5386.6,185200934.1,-102.60287902819651,35.40502358914262
200,Ochiltree,Texas,3780794.78,24304558.45,154074.17,30654.87,135625883.57,-100.81565968881553,36.278426714618256
201,Nolan,Texas,7356987.58,22671461.04,115807.74,46473.87,114767387.53,-100.40605718909993,32.30349344733559
202,San Bernardino,California,67753552.71,23397150.87,8421571.74,4314736.15,320004232.87,-116.17844188393944,34.84145972443652
203,San Diego,California,16102366.99,3850223.9,9789460.42,5614271.21,17771889.95,-116.73291375891043,33.03595512756417
204,San Francisco,California,1436795.67,0.0,2533983.39,200260.1,0.0,-122.44284216990972,37.75570432998636
205,Clay,Missouri,9083788.72,3351682.95,1115431.0,510876.42,30863284.56,-94.42083154805707,39.31054014195316
206,Clinton,Missouri,7915669.17,7978580.1,115407.51,61395.56,49167265.8,-94.4045814171835,39.60178494685267
207,Albany,Wyoming,10590296.07,72834135.61,34546.25,60885.79,291301843.59,-105.72391017507773,41.654470214007205
208,Upshur,Texas,7616652.38,3908403.61,180308.19,92042.04,53801007.92,-94.94135991095,32.736294000711766
209,Carbon,Wyoming,8868193.12,142286371.6,22757.14,35374.63,471174997.8,-106.9306120782458,41.6945919644679
210,Converse,Wyoming,8336554.0,76306844.41,34456.82,31869.62,305008437.02,-105.50706350428926,42.97233179133222
211,Hardeman,Texas,3490915.41,15691905.55,32284.09,12159.43,100623412.33,-99.7456723121695,34.290307824796365
212,Hansford,Texas,3025958.39,24487915.11,134104.78,17811.34,135349481.91,-101.35453447558682,36.277455909073126
213,Hamilton,Texas,11721740.67,17608060.86,31998.11,26013.44,101792374.03,-98.11072715196791,31.704796946779343
214,Hall,Texas,2264566.98,16880252.57,36183.24,9444.12,99200468.95,-100.68111950006302,34.53078997715161
215,Leavenworth,Kansas,8942682.51,7276523.04,183180.4,174804.52,40283994.33,-95.0379675421947,39.19929787704847
216,Glasscock,Texas,3149389.79,20908367.7,23905.11,3593.47,148840734.16,-101.52076474705034,31.86945017858746
217,Grand,Utah,1434023.37,23836772.0,43557.41,21166.93,146243478.57,-109.5711114154152,38.98173267086236
218,Gray,Texas,5233350.47,23743807.6,231198.16,77371.89,106676151.75,-100.81258171718503,35.40116267733494
219,Deschutes,Oregon,7559268.4,20408361.54,454210.15,352943.93,141701225.31,-121.22794759452195,43.914903970865176
220,Curry,Oregon,4840634.46,2513277.3,41452.45,38315.79,1880147.45,-124.15670647152677,42.457819210832426
221,Coos,Oregon,6860766.56,4585107.92,176297.67,102758.74,5038101.1,-124.0575093363656,43.171824261190956
222,Douglas,Oregon,10945495.78,9831426.08,254317.77,163013.94,11522753.64,-123.16616278084379,43.27960937546117
223,Webster,Nebraska,3608924.32,12384473.6,8984.8,11910.47,68783923.92,-98.49996516349866,40.17644527666934
224,Wheeler,Nebraska,2067402.77,11638547.34,25239.65,3126.14,72091765.7,-98.52819789314425,41.914765585072075
225,York,Nebraska,8922988.45,13205780.33,50496.21,41178.7,77145555.51,-97.5970995172127,40.872753586777485
226,Palo Alto,Iowa,8351849.94,12768191.84,43174.66,29751.43,72224025.37,-94.67814786924065,43.08205535682728
227,Page,Iowa,10359985.4,11709678.63,74557.36,48333.36,47191547.47,-95.15022655895767,40.73914137842759
228,O'Brien,Iowa,10501578.01,13732201.19,70166.82,39565.39,73540927.25,-95.62486816352768,43.08376459917139
229,Dodge,Nebraska,10047819.54,10178565.09,153327.37,94834.21,61979185.29,-96.65409337871151,41.57768035163974
230,Dixon,Nebraska,6714982.03,10119834.64,20568.35,16327.68,29566582.81,-96.86772609883366,42.49320869050891
231,Dundy,Nebraska,2519524.92,19397946.28,22128.63,6254.67,117341664.62,-101.68794656801558,40.1762306194691
232,Douglas,Nebraska,11271055.49,1775508.32,2845488.04,1165434.7,14354481.29,-96.15440017706962,41.29536075853138
233,Geary,Kansas,4946893.48,6402527.22,62873.96,55968.75,30663740.37,-96.75255803092205,39.00233241670836
234,Fillmore,Nebraska,6285552.05,13613018.27,32034.46,19839.13,80467442.97,-97.59650516079013,40.52467582440881
235,Graham,Kansas,2807508.89,17119247.82,7325.51,10431.71,116738652.34,-99.88322707214937,39.34965822131971
236,Grant,Kansas,3400817.58,13576716.95,67624.97,19816.04,90123088.16,-101.30798830539536,37.56223075651186
237,Harrison,Iowa,11593782.1,14011087.56,48146.23,42558.67,40071244.95,-95.81672243739338,41.682940115224596
238,Fall River,South Dakota,4361526.61,19249354.2,14593.23,19502.27,154473034.95,-103.52756154298723,43.23938653994573
239,Douglas,South Dakota,4630356.7,8909706.28,8267.47,11304.55,56712903.7,-98.36609963856743,43.38693507616985
240,Kings,California,5264371.03,11131399.72,704972.93,263376.11,188694607.23,-119.8155324497094,36.075325223704645
241,Miami,Kansas,11699270.02,11398956.06,92919.11,101147.59,64197274.64,-94.83806346774222,38.56359930215551
242,Montgomery,Kansas,12013559.66,11418099.2,313585.77,91778.17,79453936.02,-95.74288302205792,37.1925288695695
243,Shelby,Iowa,12010551.61,14646671.22,55647.14,39089.4,36691434.48,-95.3102281019927,41.68508326439345
244,Sioux,Iowa,17044295.43,15995092.25,183896.12,85030.88,92352126.75,-96.1778664277875,43.08262703194903
245,Sac,Iowa,10567276.06,13070003.92,55162.47,36300.57,69845703.36,-95.10540279207858,42.38624934932961
246,Anderson,Kansas,9191206.2,11968124.22,22700.04,24301.04,75066972.03,-95.29333987601629,38.21422448530049
247,Edwards,Kansas,3097907.38,15891639.08,17902.19,11204.82,94579184.56,-99.31209996540694,37.88763430200559
248,Doniphan,Kansas,5887706.7,8109757.19,38449.85,20570.8,29714511.97,-95.14698166970803,39.7885430233215
249,Dickinson,Kansas,12886878.27,18432269.41,59358.23,58714.63,107467409.76,-97.15269357534235,38.86647586348693
250,Cuming,Nebraska,9857946.73,13766276.42,29313.46,24370.45,60857790.12,-96.78739346689167,41.916421863631605
251,Cherry,Nebraska,9114732.37,110799204.0,18805.32,17510.6,473048365.0,-101.11857550034851,42.54493528891391
252,Cheyenne,Nebraska,6563752.92,28559068.41,55160.78,32950.25,163277225.84,-102.99496334983598,41.219787580297215
253,Clay,Nebraska,5457977.41,13217085.15,26940.34,21861.51,79348570.94,-98.05128837080272,40.524437114939566
254,Colfax,Nebraska,6906990.59,8762937.03,54594.27,29043.56,42840398.25,-97.08655323605268,41.57309966879119
255,Hutchinson,South Dakota,8835813.4,17250976.67,36181.61,21291.66,102442555.09,-97.75440896031552,43.33482813888871
256,Hanson,South Dakota,4620229.42,8346569.95,13329.74,7931.28,53456348.11,-97.78729419512588,43.6748126079091
257,Red Willow,Nebraska,4197175.91,13998304.58,35500.57,36911.5,74663489.65,-100.47686921249138,40.17583220235677
258,Richardson,Nebraska,6276077.41,7987354.35,30923.44,30341.52,52174393.55,-95.71666983732804,40.1248747052074
259,Platte,Nebraska,11691352.62,14529826.1,57844.27,94311.13,75807577.62,-97.51971634434317,41.570121620240066
260,Polk,Nebraska,5781142.86,10681163.12,14439.98,18079.07,58501347.82,-97.56840301556635,41.18696205321148
261,Rock,Nebraska,2661003.58,17757201.97,4013.22,4963.48,122361937.56,-99.44993046411649,42.42130854299461
262,Barber,Kansas,3902011.17,26098420.59,38090.78,16187.25,135227941.78,-98.68480918396422,37.22887706434468
263,Amador,California,2038999.24,1789104.96,246928.54,117104.6,12107965.18,-120.65201666753633,38.446062841601176
264,Murray,Oklahoma,5388238.95,7442344.15,75902.11,36166.78,44799553.39,-97.06791532236953,34.48229854363532
265,McIntosh,Oklahoma,9728635.71,11305945.35,59515.4,47898.63,65469913.15,-95.66677594622254,35.37370634105635
266,Major,Oklahoma,9122144.79,23547756.52,30836.99,22442.25,125711809.5,-98.53594811427395,36.31164889837083
267,Marshall,Oklahoma,5375194.93,6280167.97,58997.11,41955.38,42789789.19,-96.76928511141806,34.02438389825435
268,Mayes,Oklahoma,12474447.55,12136140.77,121466.5,96916.54,70013864.05,-95.23086040569856,36.3018776621309
269,Nobles,Minnesota,14089673.79,15427612.73,109305.76,50178.58,91489578.13,-95.75341774966711,43.674238179784325
270,Murray,Minnesota,12642749.62,15536251.02,41850.85,26164.98,86333468.83,-95.7632636993753,44.02211179896254
271,Hidalgo,New Mexico,2723357.29,45027901.97,19111.11,9430.4,419200708.16,-108.71483606514394,31.914166782418512
272,Harding,New Mexico,1668827.81,37096547.91,20607.77,1538.8,287722384.39,-103.81993764227572,35.857948613941545
273,Lincoln,New Mexico,9825795.93,80478343.34,42907.57,55215.15,341283027.38,-105.45924738100841,33.74524474117065
274,Lea,New Mexico,10632610.48,92870609.61,388605.68,164574.6,771322461.24,-103.41247287869808,32.79215027284783
275,Los Alamos,New Mexico,263648.14,95221.58,134919.73,52198.66,754125.07,-106.30731581578843,35.86944560997246
276,Luna,New Mexico,8898187.84,47932053.62,49263.31,47744.16,462589740.03,-107.74976641250471,32.182168489820334
277,Kossuth,Iowa,16612880.34,22167024.51,71926.48,50282.46,124105943.94,-94.20671616016833,43.20410717138351
278,Teton,Idaho,3427268.88,2376283.63,6739.74,17976.57,23613458.1,-111.20771090545021,43.759447926603684
279,Twin Falls,Idaho,10614204.47,27649562.8,78797.69,148349.13,171962495.83,-114.66714140036676,42.35598283259138
280,Latimer,Oklahoma,6721567.91,7300811.79,40556.75,24073.37,30580059.76,-95.25041696857933,34.8760596673286
281,Kiowa,Oklahoma,7036930.43,24937941.91,112975.05,30861.83,144105612.9,-98.98062716793439,34.91632831211169
282,Kingfisher,Oklahoma,10603943.67,22540221.28,41397.3,43831.07,134436573.61,-97.94210179334205,35.9453882995972
283,Kay,Oklahoma,11808443.45,14791610.83,245763.43,144615.64,117842192.17,-97.14392823320266,36.817976308628126
284,Le Flore,Oklahoma,12798932.66,13144207.32,150385.91,132818.15,86621058.79,-94.70336894873022,34.900338274212416
285,Gentry,Missouri,6059276.89,9065922.78,14364.85,18471.19,47295320.85,-94.40991231638091,40.21213121956431
286,Bear Lake,Idaho,2225477.52,2456880.9,12781.57,14537.03,19069840.73,-111.3296557984102,42.284773940675336
287,Jasper,Missouri,16197834.89,9615498.92,388469.44,274068.02,76010332.64,-94.34034878129123,37.203365209493036
288,Jackson,Missouri,17507086.82,3264278.67,2144042.27,1261200.93,30521059.53,-94.34611921619654,39.00850026120324
289,Daggett,Utah,632526.2,1653376.24,4052.7,1784.83,4346047.39,-109.50625445525448,40.88651735166295
290,Panola,Texas,6908134.05,5046095.88,145034.51,57727.99,76537430.85,-94.30567539969006,32.162368403934764
291,Parker,Texas,16068081.22,16047766.35,559889.71,331358.01,102282104.46,-97.80509751632678,32.77765413200376
292,Palo Pinto,Texas,9724787.94,15365524.75,109414.88,68287.81,94735671.3,-98.31302341118754,32.75317863857141
293,Parmer,Texas,7284904.59,22468085.93,326364.04,25612.81,151619759.7,-102.784536255366,34.53010890541854
294,Falls,Texas,9002599.92,11927113.25,84266.92,42100.95,106784176.15,-96.93584455224487,31.253278305858707
295,Scurry,Texas,8209812.74,21757387.46,97374.78,58718.43,133707562.52,-100.9164364743572,32.74633520689755
296,El Paso,Texas,9803198.42,7375665.04,2901413.26,2006690.65,88713743.25,-106.23485214610817,31.768620287188945
297,San Saba,Texas,8013268.63,23998093.93,25082.36,14447.4,128347872.47,-98.81759530805662,31.155169242377177
298,Minidoka,Idaho,7524610.23,6769527.32,45365.28,46368.15,72439188.66,-113.63751805669179,42.854402682188784
299,Lane,Kansas,2105253.59,18924495.16,9924.26,7452.63,104593995.1,-100.46637067856513,38.48135601915517
300,Lincoln,Idaho,2760518.54,18831386.35,7996.89,7839.77,158955345.28,-114.13832329593127,43.002421081161465
301,Linn,Kansas,9989225.54,11054347.63,32045.38,27459.92,65523720.38,-94.84295321649789,38.212268086815854
302,Comanche,Texas,12987747.67,18050879.43,89871.25,42082.56,123635699.24,-98.5582619977955,31.94798184077018
303,Cooke,Texas,13152640.33,18011061.88,169371.78,101555.84,104436108.85,-97.21249836188547,33.639134728398794
304,Concho,Texas,4369195.11,24273995.38,25469.4,7347.24,151700688.64,-99.86395531848719,31.326510924602736
305,Oklahoma,Oklahoma,23202301.2,6587758.49,3698441.74,2253493.79,55913336.09,-97.40720972736297,35.55152279643562
306,Muskogee,Oklahoma,15594891.67,12364504.19,260265.73,168178.24,94020795.88,-95.37946862725946,35.6160458495378
307,Lyon,Iowa,11696955.87,12710162.32,37152.83,39092.61,71628300.08,-96.21033349190306,43.38049334880489
308,Ellis,Kansas,8104536.46,18667075.42,83507.62,83286.31,114265652.21,-99.31720509623445,38.91478293333004
309,Finney,Kansas,7035269.51,31123075.39,140557.06,86812.94,197490842.2,-100.73692328327266,38.04435967365766
310,Franklin,Kansas,11277962.14,11406798.46,65890.36,69402.01,70202211.27,-95.28593412538955,38.564532397678384
311,Chase,Nebraska,3849866.44,19787552.62,34931.64,13999.48,116801667.34,-101.69795407715743,40.52417236123211
312,Butler,Nebraska,9737080.83,14193049.17,29906.68,29363.81,68773448.61,-97.13064087532312,41.22416099701188
313,Burt,Nebraska,7189426.78,10360583.92,6645.04,23060.43,43604944.72,-96.32861310660564,41.851552754403386
314,Cedar,Nebraska,11996179.36,17636427.82,28121.76,30658.61,67880118.38,-97.25238529176094,42.59924584863463
315,Cass,Nebraska,12570704.88,10726188.96,96009.14,77368.71,54951775.82,-96.14084902503296,40.90979624745175
316,Brule,South Dakota,5192612.05,18714381.84,14819.84,14352.14,98043277.76,-99.08095217198655,43.718064667823185
317,Buffalo,South Dakota,1388163.91,10265980.61,1094.28,1733.93,51177644.8,-99.20498549703046,44.07632538284366
318,Cass,Iowa,10047528.73,12430014.41,47095.55,41930.12,42060633.01,-94.92783100354941,41.33147987306783
319,Calhoun,Iowa,10139339.24,13575298.74,55733.9,33686.96,73693469.54,-94.64041754164242,42.38517177356951
320,Carroll,Iowa,11934565.68,13022662.08,95560.23,64552.01,59932514.79,-94.8605943999291,42.036212647612004
321,Buena Vista,Iowa,11765344.05,12473758.27,77113.49,44953.22,71277997.95,-95.1511369265012,42.73551535023214
322,Sarpy,Nebraska,6551117.91,1419972.44,307501.07,491684.05,15740542.05,-96.11196270184308,41.11303304247743
323,Ada,Idaho,7937699.74,3860525.68,277978.64,676515.79,47556565.85,-116.24109548078732,43.451125503381675
324,Seward,Nebraska,10779173.52,12949626.22,33159.62,47291.55,70671440.62,-97.13951240989812,40.8723857216034
325,Turner,South Dakota,10358250.7,13507492.96,57845.38,26644.98,80258454.52,-97.14864654760252,43.31087825602157
326,Union,South Dakota,7788516.33,8415043.96,47491.74,40921.04,47619146.53,-96.65607135933381,42.83247151180563
327,Tripp,South Dakota,8124864.61,31686956.93,10335.56,16749.36,165608673.22,-99.88395780765975,43.34598038850801
328,Smith,Kansas,4287367.56,18826434.19,11189.35,14272.95,112549792.73,-98.7854621523442,39.785154379677614
329,Cherokee,Iowa,10918386.91,12676153.85,66762.47,37244.92,66096139.03,-95.62382250253253,42.73564076821884
330,Franklin,Texas,4102418.79,2148461.23,69017.54,29895.52,30687446.87,-95.2184230336336,33.17552926921974
331,San Luis Obispo,California,12416113.52,12433901.21,1553875.85,660280.94,68836114.13,-120.40399073208671,35.387110251871476
332,Sherman,Kansas,4190431.32,26279036.19,36028.09,17578.12,155915235.06,-101.72002470916777,39.351441789434894
333,Bannock,Idaho,7378278.39,5795026.47,62967.54,132246.34,23360449.11,-112.22463478823832,42.66851086979649
334,Mellette,South Dakota,2661160.48,26525889.51,3919.9,3386.97,106239052.89,-100.7600898019562,43.581163557663096
335,Pipestone,Minnesota,8032445.69,10669537.47,67044.58,26710.25,59318709.15,-96.25864142517842,44.02300352540321
336,Guadalupe,New Mexico,3393433.27,71041188.98,17134.42,7628.62,424028154.1,-104.7906624135747,34.8633249475455
337,Grant,New Mexico,7598150.84,35046751.0,56565.94,82117.26,195570509.44,-108.38224076136501,32.73902592970054
338,Eddy,New Mexico,8394980.79,59753754.63,274323.67,158208.56,572804298.68,-104.30430882762758,32.471497668985535
339,Dona Ana,New Mexico,11359081.47,37630858.17,265080.19,450429.52,410916854.92,-106.83278286066873,32.35265662054207
340,De Baca,New Mexico,1469327.98,47324001.8,12316.56,4069.42,365020793.22,-104.41198887846824,34.342392271488286
341,Stanton,Kansas,1752956.09,16347134.37,25463.46,5975.7,110419678.36,-101.78420613336367,37.56311922616154
342,Platte,Wyoming,6767277.63,39983670.12,5161.24,25051.09,142687875.88,-104.9658117951561,42.133069582308394
343,Dewey,Oklahoma,7589505.64,26401724.45,46041.41,13180.9,111407564.37,-99.00792056689637,35.987667554025286
344,Delaware,Oklahoma,13648005.98,12750148.81,102349.02,99013.48,58606190.7,-94.80270062743925,36.40821542263302
345,Garfield,Oklahoma,14407975.31,26739931.86,389964.54,177833.96,153663656.03,-97.78273192409166,36.379065379747345
346,Ellis,Oklahoma,6415687.3,32398724.85,36242.5,14108.46,150073271.04,-99.75469636313268,36.21838608955502
347,Stafford,Kansas,5134880.69,16217454.5,21340.46,17071.18,112754144.84,-98.71750143945785,38.031096579849525
348,Garvin,Oklahoma,13461517.75,17252780.42,140811.18,76192.95,103840359.66,-97.30928459506718,34.704553954796815
349,Jackson,Minnesota,11827159.91,14267946.01,80473.76,29399.07,87154527.32,-95.15415684549804,43.67415370855938
350,Hudspeth,Texas,2103427.59,76803330.24,31023.29,6896.37,596113975.83,-105.38645078742871,31.456206589795265
351,Houston,Texas,11375172.82,9958113.54,86063.14,50815.36,101572091.33,-95.42268024394836,31.31776160979804
352,Howard,Texas,7195523.28,18602686.42,124146.54,93703.48,139836187.18,-101.43550886869207,32.306173245035346
353,Hood,Texas,7123370.71,6079384.74,540699.56,150046.0,47624103.04,-97.8323134848464,32.42996339802938
354,Hopkins,Texas,11993438.95,7474474.61,128536.25,89921.69,94446106.42,-95.56397176335622,33.14955029291445
355,Mason,Texas,7624279.36,17621693.95,18518.03,15499.56,98479405.57,-99.22610888234877,30.717707739377673
356,Weber,Utah,5618411.91,759417.74,390150.24,382314.13,12155225.84,-111.9132659886535,41.26991361910468
357,Wayne,Utah,2139945.16,17100493.64,5951.67,8266.06,109176547.58,-110.90366340581438,38.32436264644584
358,Washington,Utah,6514992.7,7837249.37,174195.67,298706.99,41617900.27,-113.50494104713272,37.28034735344022
359,Wasatch,Utah,3351348.59,2359465.01,49891.75,45513.27,4953479.91,-111.16948027276545,40.330425500731934
360,Ellis,Texas,17946461.94,13447038.45,440741.42,414049.96,122718966.73,-96.79456833580267,32.34839421783883
361,Stephens,Texas,7456100.92,21110542.57,48635.4,27072.31,115965063.82,-98.8361735077289,32.735864523831346
362,Pawnee,Kansas,4288421.12,18061034.43,32023.01,24206.18,114076896.46,-99.23679914635511,38.18137410031091
363,Eastland,Texas,15903588.09,20709446.13,79734.31,51305.52,126544114.18,-98.8323291532126,32.32707819191785
364,Jerome,Idaho,6624424.94,9713239.05,34644.04,37542.25,85026136.37,-114.26397545167225,42.68992147543362
365,Jefferson,Idaho,5389667.31,13094471.82,49509.75,49819.58,144301549.93,-112.31129383227342,43.82014715095055
366,Briscoe,Texas,2411792.86,17017522.12,36452.6,6115.89,94216743.23,-101.20859125672847,34.530266869465976
367,Wallace,Kansas,2052962.04,21286383.12,5106.56,6126.31,126888742.59,-101.76357365127387,38.91665663211816
368,Brown,Texas,11919059.76,18668041.33,152808.43,95906.0,125128874.52,-98.99980013612398,31.774254558075757
369,Washington,Kansas,8450363.24,21829902.9,17956.55,21099.81,113010423.48,-97.08757391780345,39.78423151567063
370,Wichita,Kansas,2049099.01,18428753.17,9180.64,6102.75,110821343.1,-101.34737002906691,38.4820704082688
371,Wilson,Kansas,8013567.5,11956546.93,37936.37,29277.11,70987125.92,-95.74340719030323,37.559253879797815
372,Woodson,Kansas,4569296.64,11822292.27,30569.81,12439.09,64679117.11,-95.74017193389632,37.88667108224685
373,Wyandotte,Kansas,4394902.42,776416.79,534360.54,269612.06,6460653.29,-94.76451477051187,39.11463732218169
374,Ventura,California,7026068.84,723590.44,3339737.36,1913622.47,19465887.99,-119.08355847135091,34.45658857396364
375,Yuba,California,4255938.03,4136153.98,322885.82,149909.7,35732944.18,-121.35122142358922,39.269047276616625
376,Gregg,Texas,5513497.02,656891.83,766121.58,275725.28,21332912.06,-94.81728531558608,32.48026859659499
377,Martin,Texas,3467251.03,19568352.4,18667.21,13182.75,156082515.17,-101.95120655604097,32.30603984459565
378,Gaines,Texas,5419251.62,31699667.7,278811.06,47715.22,247612130.49,-102.63517684854146,32.740721258450655
379,Freestone,Texas,9629396.32,7974479.41,68655.92,48597.26,96061283.34,-96.14904474717886,31.704869407432344
380,Cache,Utah,6454216.47,2434452.28,203581.19,157519.51,27947940.77,-111.74353481526798,41.72234804283392
381,Carbon,Utah,2223346.82,8751405.38,41561.25,45615.33,38813870.44,-110.58893929542833,39.64816823020652
382,Beaver,Utah,1692896.08,30497481.88,21038.91,15095.3,172208990.83,-113.23575297460451,38.35770666110921
383,Garza,Texas,3056025.49,17702368.54,66553.33,11208.25,124479944.6,-101.29845135448826,33.17990090872442
384,Lyon,Kansas,12481950.62,17397510.23,91661.45,82437.7,109645328.79,-96.15265748661625,38.45618435464168
385,Niobrara,Wyoming,3242375.53,53022973.37,2228.42,6546.14,222222359.02,-104.47536852610126,43.05650133415377
386,Natrona,Wyoming,12542059.09,108977844.1,112274.13,157016.93,363669516.87,-106.79849917862175,42.96224296867147
387,Lincoln,Wyoming,4803042.8,31271978.09,19370.91,40605.78,139866916.28,-110.65562945915363,42.26236882730683
388,Laramie,Wyoming,20017752.84,63417716.3,44586.62,165932.45,283300885.37,-104.68962114824257,41.30707027079525
389,Bosque,Texas,13669698.43,15265541.5,61586.97,58478.19,110187421.71,-97.63433390534468,31.900395500053296
390,Malheur,Oregon,8064517.34,103758214.5,167325.89,47022.29,579217995.08,-117.62305660098063,43.19343544509234
391,Garfield,Utah,4046127.19,15912443.61,11036.44,12631.17,56605953.02,-111.44312716256844,37.854916911668774
392,Ringgold,Iowa,6537302.03,11328003.92,12594.03,16863.06,47217383.12,-94.2439716133797,40.73520806472842
393,Union,Iowa,8105732.73,8646343.95,35020.08,35391.84,35670446.0,-94.24238091297116,41.02772560337671
394,Harvey,Kansas,12044483.71,11784495.09,194039.13,106477.9,77298717.98,-97.42728825356266,38.043222736179814
395,Deuel,Nebraska,1939241.65,9528445.78,11761.16,6650.82,62632353.57,-102.3339356434833,41.11161133429666
396,Dawes,Nebraska,5838608.92,22083065.28,14625.23,22976.68,123711983.16,-103.13547656147422,42.71973172897595
397,Dawson,Nebraska,11252208.52,19845138.02,118659.16,65005.52,100634384.54,-99.81958314931155,40.869938607036005
398,Custer,Nebraska,13704307.51,59150514.65,49142.43,38377.78,212026750.76,-99.72615297688415,41.394258740014756
399,Dakota,Nebraska,5097862.75,4889141.67,79301.02,39454.02,17158232.43,-96.5645531569325,42.39108493119254
400,Pocahontas,Iowa,9505030.16,14034431.52,50241.69,27283.18,74803506.48,-94.67874185086814,42.73412277359029
401,Jerauld,South Dakota,3252982.33,12748678.82,7518.63,5881.23,65011903.05,-98.62974538871666,44.066360015870984
402,Smith,Texas,11531314.54,3843744.19,544680.88,511431.6,75576887.35,-95.26925196220559,32.37500199549372
403,Jackson,South Dakota,3957622.87,34607631.23,5098.53,5102.29,168549510.46,-101.62812772747694,43.69422972190835
404,Jones,South Dakota,1620493.3,19443577.01,2052.28,2408.0,76193600.99,-100.68963791080482,43.960441666841476
405,Lake,South Dakota,7620159.33,11318437.47,33269.87,29756.2,68973917.92,-97.12936717130802,44.02204254827712
406,Sherman,Texas,2293009.65,25151286.73,70235.48,9238.86,144497104.91,-101.89347144330779,36.277708440672804
407,Reno,Kansas,18874991.76,28439164.8,211360.74,189225.26,178758118.34,-98.0860300510385,37.95294531541287
408,Sonoma,California,9180321.25,4674861.24,2659922.92,1110786.14,28669411.03,-122.88710618099863,38.52840623495007
409,Ector,Texas,8882246.61,17974512.61,454456.68,347258.79,151355817.89,-102.54282163542328,31.86921107339113
410,Solano,California,10789785.53,6128512.63,1607952.77,889525.27,63966030.28,-121.9325859708061,38.27004756544481
411,Somervell,Texas,2853486.43,2738193.29,35911.6,23596.31,17247017.21,-97.77428513705301,32.22232384268265
412,Chautauqua,Kansas,5387928.62,14027577.51,5415.29,12138.61,62844376.82,-96.24537220617538,37.15006690876142
413,Sierra,California,1544179.34,3392398.3,24640.56,10442.19,10292438.26,-120.51608205245732,39.58038297065995
414,Chase,Kansas,4017041.34,17122845.8,10762.91,9398.07,77853798.33,-96.59395269789401,38.30201532576872
415,Rice,Kansas,7367614.75,17188845.09,44787.89,33310.77,106884213.22,-98.20105052893359,38.34711572175224
416,Bourbon,Kansas,9599782.15,12502219.23,74764.44,41494.75,79407582.89,-94.84931287828597,37.8552286610793
417,McCurtain,Oklahoma,10865342.7,15950037.8,137524.32,83589.11,133159854.01,-94.77119329584659,34.11540179410423
418,McClain,Oklahoma,10289689.86,12881534.34,213276.78,111991.22,75555557.49,-97.44384390721144,35.00867785606255
419,Love,Oklahoma,7071352.58,9611725.19,15150.58,22582.83,63462057.54,-97.24438280101263,33.94978212963218
420,Logan,Oklahoma,11881085.99,15763367.89,137120.44,104349.58,94219997.88,-97.44332195639488,35.919357284780396
421,Lincoln,Oklahoma,17127673.74,19584677.5,146118.59,91224.62,116134700.18,-96.88092356961711,35.70300850675849
422,Rock,Minnesota,7459827.62,10239516.18,29428.33,25103.73,60448859.49,-96.25322150747178,43.67464211429125
423,McKinley,New Mexico,22990868.63,70162965.77,68166.79,116922.98,462909438.92,-108.26192935019658,35.580616582011814
424,Mora,New Mexico,6691523.21,25156564.5,1137.12,9470.14,153887187.99,-104.94456863263405,36.009932369160445
425,Otero,New Mexico,11300323.39,63678901.59,86338.99,137073.28,481800364.5,-105.74166064155976,32.61318027491601
426,Quay,New Mexico,7183683.9,66459048.95,104194.81,25870.27,420215460.16,-103.5497286104844,35.104372062352965
427,Rio Arriba,New Mexico,10117261.39,33125407.84,29354.23,81306.73,138236809.59,-106.69310801902489,36.50957307334959
428,Santa Barbara,California,6899329.68,5739744.82,1857936.52,752197.49,34881097.99,-120.01670625364476,34.672976049373936
429,Rains,Texas,3161368.63,2034949.11,55429.76,29899.35,27070553.08,-95.79339672938167,32.87032338172315
430,Polk,Texas,7198106.1,4301585.12,228141.5,105261.75,98558264.9,-94.8300112656638,30.792762208672197
431,Potter,Texas,9391987.44,17000642.54,1029755.61,189578.15,103699803.74,-101.89400828967796,35.401296718757315
432,Jackson,Oklahoma,6365519.26,16682017.63,106408.88,76329.85,121618031.38,-99.4148263897875,34.58799512259241
433,Jefferson,Oklahoma,5318455.84,17164840.4,44876.5,19012.57,108322186.22,-97.83588942108311,34.111060235440895
434,Haskell,Oklahoma,7132885.34,7155280.92,53701.79,31097.25,49989134.32,-95.11663505430509,35.224826926453
435,Hughes,Oklahoma,11648676.09,14628006.95,86094.19,30043.57,80436017.51,-96.25019767727137,35.04841395432737
436,Johnston,Oklahoma,6263907.14,10520793.48,47390.72,28977.13,81175079.21,-96.66062173175138,34.316403105828336
437,DeKalb,Missouri,7620728.34,8635322.49,61009.53,22018.14,45682882.0,-94.40471439157015,39.8931909403484
438,Holt,Missouri,4927367.57,6578781.93,33211.45,14659.01,36792970.67,-95.2150193730003,40.09457313350634
439,Sumner,Kansas,15969812.9,25589520.98,83533.37,80170.21,170831184.82,-97.47654024870502,37.23729266877506
440,Thomas,Kansas,4920848.53,27548042.81,52446.33,24947.11,160907863.14,-101.05555160240479,39.35091363126517
441,Brown,Kansas,8855892.54,12992336.05,46759.25,31161.65,64699923.12,-95.56419259886488,39.82649863716747
442,Wabaunsee,Kansas,8347653.62,19184177.77,21619.52,25004.43,76418173.62,-96.20499914983128,38.953239559655756
443,Napa,California,4222084.22,2955115.66,899204.28,294554.14,12742960.29,-122.33047205961394,38.50644076733178
444,Floyd,Texas,5771476.13,22284944.52,109810.52,19706.38,143391247.5,-101.30323072147182,34.07242447772487
445,Fisher,Texas,6289160.51,21920665.73,37964.79,14554.74,134748993.95,-100.40218030425089,32.742821404402186
446,Foard,Texas,1595502.51,16284268.49,9507.03,5086.94,101820531.95,-99.77798167599443,33.97459887384958
447,San Augustine,Texas,4399371.36,1997177.98,36604.58,18317.51,26869507.19,-94.16818429836512,31.39421014911936
448,Rusk,Texas,11276860.39,5578697.41,308391.44,121900.1,82941698.93,-94.76181562376273,32.10775048669942
449,Payette,Idaho,3641427.56,4136679.17,25729.93,41401.5,21009289.36,-116.7607603216013,44.00674972691852
450,Power,Idaho,3853554.02,16520169.83,18799.76,11971.62,81185694.45,-112.8406708102559,42.693687877059524
451,Oneida,Idaho,2036772.47,8686976.19,13010.51,9952.72,46061591.43,-112.53960396073018,42.19488904633358
452,Owyhee,Idaho,5686597.1,75786201.3,12387.36,19332.34,515495065.21,-116.16997367823032,42.58152677806021
453,Sublette,Wyoming,5453779.69,29862000.4,25352.14,22305.9,237673734.89,-109.91470547486023,42.76690775082456
454,Sweetwater,Wyoming,5007154.5,203212738.0,60937.13,92790.23,1028708652.71,-108.87942438564913,41.65950025319826
455,Coke,Texas,3667637.08,18359064.62,21068.3,12097.19,105862421.5,-100.52991267437218,31.888532164036977
456,Coleman,Texas,11707135.63,27915273.83,60900.21,25343.16,174026897.45,-99.45362509330182,31.773218883535463
457,Collin,Texas,20111498.66,9042677.6,1652591.07,2256644.36,82430490.05,-96.57243610580578,33.18792445042455
458,Collingsworth,Texas,3072634.34,20388965.69,25664.73,9219.78,114398169.7,-100.27004330957654,34.96486076978999
459,Yolo,California,6639219.94,9247296.54,977495.13,394364.37,101401343.29,-121.90165089797709,38.686732753430945
460,Brown,Nebraska,3971293.53,21995502.62,8667.97,10340.12,131235889.47,-99.92950140910425,42.4299909718738
461,Boyd,Nebraska,3260868.28,9776411.46,6730.12,8055.71,40664683.83,-98.7665183090445,42.89970651876542
462,Box Butte,Nebraska,6065381.36,23927256.91,44709.6,32966.0,146816305.04,-103.08570434081635,42.21977177850006
463,Boone,Nebraska,6307011.84,16394308.64,147419.94,18247.45,64399666.6,-98.06724511474195,41.70679137679813
464,Buffalo,Nebraska,16268057.2,18982098.26,49143.09,113159.17,109312925.84,-99.07497786484998,40.855173067905355
465,Bon Homme,South Dakota,6826348.41,10688857.71,13373.92,17546.63,67262912.05,-97.88468263491228,42.98840924274003
466,Aurora,South Dakota,4773431.75,15915597.46,11756.4,8318.9,93762248.41,-98.5615881450268,43.71804177899627
467,Bennett,South Dakota,3905721.51,22114978.45,4162.97,5126.92,109106324.59,-101.66391977675735,43.19493509336015
468,Sherman,Nebraska,4492366.03,13184839.57,10514.58,11723.87,50482178.46,-98.97627171788545,41.22056350995252
469,Sheridan,Nebraska,7180655.55,47257933.02,6087.39,17333.35,215404503.34,-102.40898934057246,42.50476538907017
470,Stanton,Nebraska,6541281.72,9565869.68,25501.63,18815.29,36915296.22,-97.1939134630444,41.91692330278862
471,Sioux,Nebraska,3439664.09,38763836.35,3005.0,4670.2,201339531.38,-103.75887764551939,42.48771623818916
472,Thayer,Nebraska,5721091.26,13170909.48,16482.96,22256.87,76817952.97,-97.59492892338464,40.17629003721419
473,Yankton,South Dakota,7914912.68,9468631.58,30755.48,51780.61,58154816.69,-97.3947474316447,43.008966506954664
474,Curry,New Mexico,8943271.05,34047621.5,267163.05,121338.99,237918943.35,-103.34692192068414,34.57419196287791
475,Bernalillo,New Mexico,8915330.06,9078914.2,988588.48,1591104.16,88286181.46,-106.67016097246137,35.05152821181366
476,Catron,New Mexico,7713557.05,50140578.53,5306.22,11517.29,305880134.58,-108.4047225448612,33.91533466407001
477,Chaves,New Mexico,7658127.28,104209840.7,327076.26,173267.44,831318002.04,-104.4669999014281,33.363206837713314
478,Sebastian,Arkansas,6100331.18,3758782.27,427924.81,287678.34,27879236.11,-94.27403950059305,35.19938220964427
479,Todd,South Dakota,6785102.0,26785627.97,10431.12,10410.55,134727587.68,-100.71841255547614,43.19338503384105
480,Payne,Oklahoma,13084090.31,12688489.97,282571.66,151176.69,82331102.7,-96.97575535273239,36.07732568573381
481,Ottawa,Oklahoma,9684673.03,7983950.5,120540.56,77038.69,51799951.31,-94.81045910649084,36.83550886735016
482,Pawnee,Oklahoma,7930203.55,11322871.93,52364.47,39964.73,63585863.69,-96.69933100425604,36.31715075403767
483,Okmulgee,Oklahoma,13115862.96,11483038.58,102683.74,94312.23,79062251.34,-95.96428824036474,35.646681859427666
484,Osage,Oklahoma,19526357.66,39136135.33,141848.49,126947.98,200956283.35,-96.39826778556576,36.629316067663595
485,Duchesne,Utah,8588688.65,16407940.37,19382.87,37631.94,91212083.54,-110.42475586771889,40.297517418252
486,Davis,Utah,2828513.4,381454.86,389384.13,544676.36,8407737.44,-112.11125863358276,40.9906255510935
487,Labette,Kansas,12142369.63,12916459.68,68750.18,62714.32,88491014.06,-95.29758545848334,37.191318074787304
488,Emery,Utah,2044143.85,35569974.42,28336.89,24276.16,256594074.45,-110.70210783858104,38.99681748151774
489,Coal,Oklahoma,5756167.73,9410956.95,27646.13,15899.49,59034920.19,-96.29786792270009,34.58822999024552
490,Cherokee,Oklahoma,11896321.71,9776865.8,74441.26,86659.01,40722975.76,-94.99964609433268,35.906612581542525
491,Choctaw,Oklahoma,8264357.71,10756799.04,70260.73,38035.22,89760413.16,-95.55214799975862,34.02649218995354
492,Cimarron,Oklahoma,3826578.57,43658481.59,44249.24,8150.16,279064120.31,-102.5177697174108,36.74832769696754
493,Cleveland,Oklahoma,11591262.02,7547871.5,857214.37,944006.07,54634602.89,-97.32705775862755,35.20366524624142
494,Worth,Missouri,2999138.42,4895200.4,9361.52,6778.95,22827886.94,-94.4220964355711,40.47916278657483
495,Cherokee,Texas,10917837.55,5619425.36,127782.6,114372.73,82682190.71,-95.16515692647258,31.836941593594666
496,Lyon,Nevada,7590124.54,12908959.91,298917.58,110439.03,103997745.96,-119.18903902889839,39.01797001137908
497,Fremont,Wyoming,13406274.37,109233716.2,66521.69,86758.7,530021110.91,-108.63041764846825,43.04052605079061
498,Harrison,Texas,9052219.61,5465297.35,416614.79,157822.01,80505228.2,-94.3713497535584,32.548173075528304
499,Haskell,Texas,5198124.67,21713967.84,32945.73,21422.38,143226706.4,-99.73030152644176,33.17823455773864
500,Hartley,Texas,2843032.49,34102480.82,85630.24,13203.69,221040657.86,-102.60288701068603,35.84002289861434
501,Hot Springs,Wyoming,1682386.65,18835976.13,13613.58,12443.66,43632403.01,-108.44205249478117,43.71892403696619
502,Marion,Texas,3256356.33,1848226.41,61117.06,25077.97,29456006.92,-94.35724992794108,32.7979670842493
503,Goshen,Wyoming,7617296.65,44370374.85,6484.95,38031.68,244876737.81,-104.35325289197631,42.08793690300991
504,Gila,Arizona,4840738.42,19320507.29,35384.16,135718.4,30662080.23,-110.81167835545034,33.79975969956192
505,Coconino,Arizona,27311602.92,181095882.2,114513.64,257014.32,1288528892.09,-111.77051202839151,35.83875388460709
506,Cochise,Arizona,18501629.18,53739337.88,84119.54,316525.58,646775257.42,-109.75108927250706,31.87962668776881
507,Apache,Arizona,45192077.11,124259153.5,28148.82,129343.34,1012263627.82,-109.4888576453719,35.39562614688328
508,Montague,Texas,14223660.79,20710619.12,197782.29,64044.46,113452202.05,-97.72463679361539,33.675674653545215
509,Mills,Texas,8888260.94,16596975.33,20307.41,17327.09,90180064.5,-98.59548905979473,31.495175633065237
510,Milam,Texas,11093262.16,12984693.24,97362.32,62008.86,131874582.21,-96.97674730626078,30.786366025629498
511,Graham,Arizona,5149778.25,34221329.96,16528.6,69529.14,280877120.82,-109.88742100017201,32.932717439031265
512,Taylor,Texas,15347577.12,19481002.27,287011.23,352826.35,116959687.41,-99.89012747671714,32.30149123619428
513,Terry,Texas,4158607.82,18170393.41,180671.53,37812.8,150683360.3,-102.33519487464721,33.17380946076664
514,Throckmorton,Texas,3193054.12,22509519.24,12602.07,5739.14,126328271.42,-99.21236982282436,33.177487477517715
515,Atlantic,New Jersey,10251214.87,187645.48,606756.43,501896.1,32346801.83,-74.67718906468806,39.4824134266927
516,Lincoln,Louisiana,5332166.51,1531103.67,242778.01,89889.6,34849207.74,-92.66471638028005,32.601599832961355
517,Bergen,New Jersey,1725544.25,0.0,2337883.14,1145938.64,20232.47,-74.07822345040191,40.96165535259576
518,Cape May,New Jersey,3470501.63,78937.56,354613.22,217353.31,10607422.28,-74.80669774183464,39.15184428806036
519,Natchitoches,Louisiana,8955974.95,3058909.07,210787.68,76220.68,81053330.48,-93.09625862968079,31.723587156786056
520,Williamsburg,Virginia,220851.23,0.0,58904.73,10292.03,91340.73,-76.70724935581745,37.26911852064889
521,Portsmouth,Virginia,1065593.56,0.0,240883.51,141223.02,0.0,-76.35528216571616,36.8451994932985
522,Hardin,Ohio,8984190.87,8682293.78,232194.97,66220.71,55434433.95,-83.65941697650577,40.66150772288821
523,Harrison,Ohio,5817171.69,4370164.71,108479.65,37129.99,2927036.96,-81.09111196900221,40.29381938436769
524,Hamilton,Ohio,3367532.21,258573.97,2244117.51,1225765.89,5928640.29,-84.5427394219576,39.19551162877466
525,Hancock,Ohio,12666223.24,9606837.74,463261.67,187724.34,60063024.56,-83.66654172765648,41.001928574297445
526,Cannon,Tennessee,3227559.15,2299983.22,36767.47,30515.51,11459224.17,-86.06175186755947,35.808680297866495
527,Carroll,Tennessee,8243702.42,5943828.36,57223.5,63124.0,49402561.72,-88.45027103791237,35.97312408207107
528,Henry,Ohio,10598144.53,7772553.85,144130.06,75053.04,50698331.79,-84.06822850849343,41.33390039886835
529,Campbell,Tennessee,3795431.53,2093422.25,62339.14,79349.66,1977894.59,-84.1493434576117,36.40357192929363
530,Berrien,Michigan,13155947.45,3790702.6,257882.88,339747.24,50524424.01,-86.41212099336369,41.954633031472234
531,Kanawha,West Virginia,6084001.11,2842008.67,419528.87,348226.88,339486.49,-81.52812215946977,38.336573376259
532,Jackson,West Virginia,4597830.01,3626223.75,64632.49,59043.91,1620014.13,-81.67480225417161,38.834450250973894
533,York,Pennsylvania,18130362.31,7572518.55,1050726.19,829508.17,23156566.01,-76.7265289173779,39.91991604077435
534,Jefferson,West Virginia,2385447.75,1665145.8,89164.19,102549.38,16581779.81,-77.86276798058381,39.30763313037411
535,Wyoming,Pennsylvania,4942241.2,2163907.27,46561.61,58048.07,396764.48,-76.01649491874072,41.518385641061904
536,Hardy,West Virginia,5965129.86,3285613.15,37280.48,25005.38,3932134.93,-78.8579187540252,39.007500659500344
537,Harrison,West Virginia,4251610.53,2198370.09,80562.73,133106.34,312606.67,-80.37988698215564,39.28351767925742
538,Terrell,Georgia,2920981.0,1870531.91,45022.87,16388.36,39068043.38,-84.43694193368952,31.776889966098164
539,Telfair,Georgia,3701974.27,569104.56,40554.94,22475.55,40210200.73,-82.93896878671114,31.929801398734675
540,Tift,Georgia,4214115.73,742304.61,204742.07,67654.08,28628865.0,-83.5266001312861,31.457489536034515
541,Thomas,Georgia,4996225.05,1129280.92,173342.49,88054.72,48532715.79,-83.9193478061393,30.86373611610494
542,Toombs,Georgia,4439543.91,480061.32,111003.83,51433.43,35736825.81,-82.33085861170636,32.12111962901051
543,Bedford,Pennsylvania,14479925.33,8525821.15,209350.57,112794.03,9350828.03,-78.49028875288647,40.00656409003216
544,Beaver,Pennsylvania,5182133.62,2422472.07,548974.23,361247.64,4012389.32,-80.34924167479657,40.68228515317915
545,Armstrong,Pennsylvania,8971905.78,5690831.16,203005.89,151397.54,1644568.87,-79.46447243575226,40.8124822912721
546,Allegheny,Pennsylvania,7392605.41,423680.16,3163652.88,1822053.17,687522.84,-79.98117894191878,40.468797454794384
547,Adams,Pennsylvania,10099988.62,3893686.77,93174.75,223405.15,32838342.64,-77.21796990665513,39.87147348011117
548,Berrien,Georgia,4672190.57,905667.26,49842.93,38701.78,45753979.25,-83.22968711287083,31.276110525291454
549,Marshall,Mississippi,6797609.11,6091721.55,94217.33,84836.82,51975019.52,-89.50305618657052,34.76226905032593
550,Cibola,New Mexico,7586672.53,46493194.0,28545.37,56512.31,355669049.21,-107.99971767770855,34.91257787264529
551,Colfax,New Mexico,5127931.6,44229204.88,66775.41,37809.53,258923015.33,-104.64681687815683,36.606106731233915
552,Douglas,Kansas,9743708.76,7802041.34,200869.42,202168.6,44149493.98,-95.29256927828456,38.8846680879567
553,Harper,Oklahoma,2556260.75,23634884.58,28601.22,13294.12,127376706.7,-99.66735980208338,36.78872580373422
554,Greer,Oklahoma,3702863.41,13706940.4,25739.98,16964.09,89252405.26,-99.56060842335448,34.93573059515907
555,Harmon,Oklahoma,2303562.91,11618234.63,36083.17,10193.95,77543743.63,-99.84629558180418,34.74412103292083
556,Grady,Oklahoma,20899192.21,26186420.56,340976.96,160076.78,138191640.81,-97.88413925669741,35.017141236685006
557,Menard,Texas,5113231.95,23492632.9,17079.37,7657.3,130838649.66,-99.82063295142139,30.889775911662117
558,Martin,Minnesota,15371695.17,15543051.9,103493.86,58284.89,88124380.78,-94.55111388167751,43.67434995649726
559,Jack,Texas,9969652.54,20071192.25,45605.23,22988.16,103182427.06,-98.17246403420273,33.23346177495346
560,Irion,Texas,2302498.46,26044223.38,31854.69,4958.33,139886752.17,-100.98243931753711,31.303917762471645
561,Hutchinson,Texas,4559427.14,19784066.36,206217.76,75821.91,109612938.14,-101.35469351500593,35.84002461455006
562,Hunt,Texas,16960780.35,12860134.47,399829.15,181338.1,114393121.55,-96.08544694236221,33.123595897012365
563,Tom Green,Texas,10543186.28,32289496.66,252638.53,311301.04,212453459.4,-100.46213570716996,31.404398637869
564,Tyler,Texas,6401044.17,3046960.54,83734.31,53829.76,76518121.38,-94.37660735185285,30.771247644663898
565,Crosby,Texas,3894899.41,20126131.95,107231.26,19280.28,131374575.0,-101.2999568093891,33.61462380426222
566,Mohave,Arizona,30100247.74,104607997.2,120238.44,450741.23,697316676.13,-113.7581873830581,35.70439652623397
567,Lubbock,Texas,18221681.08,16113213.89,2111318.33,717527.33,135838335.51,-101.8205536368251,33.61019426932089
568,Navajo,Arizona,34042408.05,119535715.5,91078.3,212085.83,871828326.4,-110.32141869244577,35.399618063938306
569,Greenlee,Arizona,1672757.41,5465136.25,189185.29,10227.99,27489219.77,-109.24009689917037,33.215356220396146
570,Maricopa,Arizona,28466476.25,42633758.88,2527720.08,8077095.79,787277175.37,-112.4911986078325,33.34885730057229
571,McLennan,Texas,18799113.12,13538358.48,721134.67,527840.15,128501721.22,-97.20179197150118,31.552382285277393
572,Pima,Arizona,17368789.39,58538294.02,668668.1,2240757.83,842989215.01,-111.78992616532119,32.097435626489585
573,Summit,Utah,6524393.12,6388054.24,105065.06,78660.84,4449377.08,-110.95570313643181,40.86815421940219
574,Sterling,Texas,1298833.11,22897406.29,9587.31,4095.25,118655406.3,-101.05000511505784,31.827902852012393
575,Stonewall,Texas,2807505.01,20027842.11,10496.41,5484.86,124307958.77,-100.2533130734091,33.17912740429026
576,Tarrant,Texas,24025583.95,1381234.29,3809740.05,4582858.76,31090638.85,-97.2918090856753,32.77042618253339
577,Donley,Texas,4142226.79,20351146.71,26970.17,10120.54,96819692.71,-100.81398839909019,34.96539941290069
578,Dickens,Texas,3522598.42,21842056.47,16451.04,8107.84,110742162.43,-100.77886500798257,33.61660553307172
579,Pottawatomie,Oklahoma,16079499.88,14859229.96,371453.03,185204.41,93354296.33,-96.94844120595886,35.206651452298416
580,Gem,Idaho,2613122.1,3468586.31,18878.9,32152.03,12974735.29,-116.39724839154103,44.0616788372848
581,Gooding,Idaho,5525473.96,10724202.65,27257.65,28250.29,73432529.01,-114.81149258622376,42.97086031670205
582,Franklin,Idaho,3528813.99,2626640.92,26374.61,25148.24,18725559.45,-111.81319951077984,42.181186365687104
583,Charles Mix,South Dakota,9857130.87,21147026.44,21368.21,20775.18,119721918.89,-98.58794400855507,43.20791103418356
584,Clay,South Dakota,5988476.97,6996897.59,14717.91,22132.63,50613337.47,-96.97564464064261,42.91465366819768
585,Kingman,Kansas,9736948.71,21464066.93,51291.69,25247.46,123235632.3,-98.13634769208738,37.55895813590083
586,Lancaster,Nebraska,20410950.65,15054681.62,852761.95,486053.42,86893682.18,-96.6877515432373,40.78417430707777
587,Republic,Kansas,6164523.01,16361640.73,11291.42,19141.63,94701566.59,-97.650635117132,39.82782708379086
588,Pratt,Kansas,6478890.9,18430456.12,37366.78,29500.28,109886590.71,-98.73958136901581,37.647821560750074
589,Rawlins,Kansas,3202781.75,25191489.83,10560.73,9731.52,114996036.79,-101.07576291613611,39.78522375524699
590,Keith,Nebraska,6106641.25,21604904.49,30573.34,31395.84,115664709.09,-101.66135542114654,41.198783595350626
591,Keya Paha,Nebraska,2458704.5,11312355.23,1908.8,2470.47,74358497.17,-99.7124433361729,42.87886520759644
592,Kimball,Nebraska,2748408.92,23677572.62,20171.77,10752.7,129847289.86,-103.71496404894873,41.19767563757638
593,Knox,Nebraska,11874111.96,21316184.64,23257.51,25837.0,84298258.52,-97.8918818633091,42.63683019171914
594,Johnson,Kansas,12830574.33,3737938.92,1172656.22,1212279.96,32952791.02,-94.82227859883795,38.88377525627649
595,Sanborn,South Dakota,4377556.66,10966572.45,11308.59,7226.37,71658576.13,-98.09136059789006,44.02344355031256
596,Oglala Lakota,South Dakota,8244864.92,32089066.96,9327.76,8149.51,136741507.51,-102.55161773859587,43.335594447596115
597,Camas,Idaho,1406017.25,4577576.14,2054.24,2399.65,40345385.74,-114.80582553980436,43.46325248742942
598,Otero,Colorado,4401393.17,14491835.46,30187.82,46565.52,186248155.04,-103.71645756091351,37.90271707768685
599,Morgan,Colorado,6995346.03,18296074.76,133873.92,54167.72,181691869.93,-103.80982804146673,40.262722809419
600,Montrose,Colorado,5366267.35,10585451.54,87736.28,94933.05,49383673.91,-108.26936045187824,38.40218119821658
601,Montezuma,Colorado,6250322.87,10916570.61,195609.03,58513.36,90675317.94,-108.59678282206728,37.33838716364582
602,Moffat,Colorado,3833431.63,53329263.52,114442.81,25174.92,144829496.14,-108.20730228462229,40.61842791211885
603,Lake,Colorado,1707211.87,228847.38,26709.54,13356.11,705750.62,-106.3448252789525,39.2023726503014
604,Woods,Oklahoma,5188208.81,28029204.87,102157.67,25394.21,164836052.23,-98.86510204768497,36.76693600892042
605,La Plata,Colorado,7259137.35,6062596.44,274786.72,136936.12,47685855.88,-107.84335864525352,37.286598300961884
606,Del Norte,California,1572572.64,250438.18,63637.01,34320.29,3596381.7,-123.89679804332164,41.74310811456538
607,Kiowa,Colorado,2180270.66,36990559.4,13797.9,3789.35,288042989.16,-102.74039290580339,38.43269145576779
608,Kit Carson,Colorado,7427985.13,52224464.29,60008.45,17152.53,322992921.65,-102.6028759901426,39.30542738259258
609,Larimer,Colorado,20493467.0,10288339.58,945865.14,544273.13,57598579.2,-105.46116387637603,40.66641921654118
610,Woodward,Oklahoma,9906716.28,30561092.97,155043.06,53893.24,154567235.86,-99.26497984835737,36.42267087460506
611,Okfuskee,Oklahoma,10754006.89,12403682.81,55457.09,26859.5,72133824.45,-96.32263933884668,35.46546174145002
612,Nowata,Oklahoma,7845109.56,12494156.81,33977.3,26951.86,73558771.58,-95.61742437905056,36.79847527726181
613,Noble,Oklahoma,8838196.91,17690558.28,73618.21,34400.51,100720421.87,-97.2304911820186,36.3886179426203
614,Cottle,Texas,1575923.43,20321304.32,12964.11,6051.84,121030297.17,-100.27872639496431,34.077642717666585
615,Custer,Oklahoma,9045649.74,22719776.97,252813.91,63495.99,119740088.78,-99.00149526205848,35.6388766558294
616,Cotton,Oklahoma,5659454.98,14528168.11,30989.54,20092.67,97089862.57,-98.37223911937421,34.2899609316476
617,Comanche,Oklahoma,14911029.52,17267136.92,575594.17,252288.16,109485204.89,-98.471650555316,34.66212305919579
618,Creek,Oklahoma,17701974.66,16213443.73,352360.23,206517.8,93395944.2,-96.37094583453637,35.90267260557761
619,Craig,Oklahoma,10823672.39,16762689.49,88433.75,43057.33,97658450.68,-95.20855467232194,36.761756429490326
620,Midland,Texas,8749291.29,16785722.83,406575.82,417103.87,148180954.62,-102.03158471820939,31.869235550860672
621,Loving,Texas,147347.76,10996301.77,3675.03,185.25,117310995.75,-103.58004581501173,31.849211435230007
622,Crane,Texas,662374.92,16114581.7,26543.23,13458.34,136635341.78,-102.51555930660012,31.428522683040672
623,Trinity,Texas,4738352.9,3945993.38,59649.44,34467.44,43198349.96,-95.13549180054812,31.088825501526088
624,Culberson,Texas,1124779.55,67003625.92,40321.64,6476.95,440793498.06,-104.5174094662012,31.44714833630801
625,La Paz,Arizona,2914688.39,34576139.02,28021.54,35996.24,444196578.14,-113.9813033031657,33.72925411369664
626,Canyon,Idaho,15783906.63,5210141.5,167684.35,296507.24,61215628.15,-116.70927084572361,43.62510395141186
627,Caribou,Idaho,3607034.81,9448033.45,22663.44,14887.32,58767906.77,-111.56221663830661,42.77051012310284
628,Hill,Texas,16113479.4,17285735.8,176734.42,87875.66,127644060.44,-97.13241806187705,31.990743573231665
629,Hemphill,Texas,2941295.66,22218017.46,91679.27,11532.48,109192438.56,-100.27049783605679,35.8376006806727
630,Henderson,Texas,12482744.67,5959220.93,195060.76,195345.16,86808120.65,-95.85358085433535,32.21201500440875
631,Hockley,Texas,9419348.12,20596543.66,379974.64,69711.38,155226422.88,-102.34319873568813,33.607634914315945
632,Sevier,Utah,3765233.76,5903467.22,61195.26,44909.98,30150943.31,-111.80463154804367,38.74762560369806
633,Swisher,Texas,5804187.7,22400766.51,162275.18,22247.18,140805254.04,-101.73502056319353,34.53038949105965
634,Cochran,Texas,2009094.04,18373652.72,112158.0,9942.51,134185239.06,-102.8284964663925,33.604117625146
635,Childress,Texas,3018351.01,14592202.9,26717.37,17629.31,104469043.28,-100.20760822932603,34.52915588749338
636,Clay,Texas,9698376.98,27049535.25,53669.13,35434.19,160505455.18,-98.20816397097475,33.78502394672241
637,Tooele,Utah,2775031.41,59811109.78,73449.91,114008.05,387460377.64,-113.13107630327738,40.448753130751754
638,Burnet,Texas,13681899.56,17114137.62,178319.4,116350.4,102033444.69,-98.1824247020594,30.788262162862075
639,Stevens,Kansas,3270961.33,18343522.87,20839.19,14552.55,117600717.43,-101.31207835869837,37.192350935606726
640,Tuolumne,California,3711652.45,3303093.19,348031.84,152403.12,6174669.8,-119.95529316073117,38.027189132007486
641,Callahan,Texas,8969141.87,23722633.88,48492.24,44479.99,118026269.15,-99.37349565353882,32.29765530438913
642,Montgomery,Iowa,7560570.27,9377702.54,50883.34,32670.72,33566546.75,-95.15635938686226,41.030109047976204
643,Monona,Iowa,9200586.63,13917018.3,27012.79,27451.55,53143819.73,-95.95997361885988,42.05164685359251
644,Adams,Nebraska,10082702.14,12174534.66,177003.2,92444.85,76870052.25,-98.50122834599962,40.52447159100006
645,Antelope,Nebraska,9418706.4,19314380.78,19121.09,19428.62,101543333.39,-98.06668180629639,42.176898985480044
646,Arthur,Nebraska,1261925.41,15729618.27,2140.91,966.76,44918814.61,-101.69591858077362,41.56890343490444
647,Banner,Nebraska,1866652.35,17866352.51,12735.56,2157.58,80128999.25,-103.71045944150237,41.54599142569288
648,Blaine,Nebraska,1564956.9,14278648.67,3017.85,1203.5,78273180.6,-99.97690215552156,41.91275462389057
649,Davison,South Dakota,6224930.15,7980968.31,39285.48,53261.59,54818217.44,-98.14597812397386,43.67472987735556
650,Custer,South Dakota,7463696.08,13142662.41,5771.41,26951.41,57343821.94,-103.45153217171735,43.67762901717981
651,Audubon,Iowa,8739681.66,11532263.2,49729.99,21516.76,26577941.61,-94.90582584833915,41.68459676122431
652,Adams,Iowa,6757872.74,9537153.95,12686.47,11866.89,31766096.55,-94.69917528035968,41.02898019380703
653,Adair,Iowa,9894134.45,14073198.7,26945.57,25364.01,41428021.12,-94.47094955325308,41.3307376783613
654,Wayne,Nebraska,7504828.57,11639862.01,30085.04,22754.47,39307531.25,-97.11921173442042,42.20929244718674
655,Valley,Nebraska,4215990.72,12651408.03,19362.51,13055.85,46589963.53,-98.98188512425793,41.56729893896559
656,Washington,Nebraska,8328991.62,7020616.88,77384.18,62718.32,27369111.02,-96.2218769584808,41.53110734529517
657,Thomas,Nebraska,1510859.69,15361631.14,3904.08,2191.76,55058246.73,-100.5558614283338,41.91351565556758
658,Thurston,Nebraska,4716143.08,9209445.54,5753.01,12265.82,23683389.05,-96.54403218937429,42.15818681343069
659,Pennington,South Dakota,14522993.69,29727121.78,158001.2,205581.4,156168910.64,-102.82382206347351,44.00373920078366
660,Sevier,Arkansas,4323549.42,3677840.66,58848.24,34657.84,40696715.88,-94.24117255492528,33.99718475399378
661,Titus,Texas,4495787.86,2797578.69,141515.26,66328.88,43350141.06,-94.96565549449681,33.216589032558744
662,Delta,Texas,3493012.66,4363903.33,22090.19,15177.38,34249961.07,-95.67223607560636,33.386285141532085
663,Camp,Texas,2756782.07,1421652.56,67787.35,27624.14,20954415.92,-94.97847241118302,32.973211029087075
664,Cass,Texas,10822651.08,5620241.07,167897.48,76521.12,77451189.5,-94.34363810106288,33.07752517807145
665,Carson,Texas,4130565.66,27198356.21,117053.09,23701.89,137300557.14,-101.35418970657179,35.40350766450117
666,Castro,Texas,5378564.14,22188132.84,152156.03,21057.36,151209636.06,-102.26167067766701,34.52998689403363
667,Grant,Oklahoma,5364176.54,20085046.04,61111.64,16206.24,145396124.81,-97.78613560871831,36.79616585042027
668,Jewell,Kansas,4644621.73,20642292.91,7988.78,11928.41,113802013.15,-98.21840666688797,39.78474180052704
669,Calaveras,California,3409961.07,4580092.41,269307.95,153348.98,10838394.52,-120.55408917079855,38.20471003135476
670,Hodgeman,Kansas,2510935.32,19918089.41,9472.89,7793.35,126335745.91,-99.8979111059852,38.087500278020876
671,Haskell,Kansas,2745834.59,15781444.98,25446.65,9898.45,92329246.45,-100.87119641349211,37.56229049980548
672,Alameda,California,5004128.06,1829581.22,5014271.09,2850159.29,5764658.66,-121.88610580424404,37.64642230811096
673,Jackson,Kansas,10929908.39,14666206.03,59802.2,42043.58,74273323.08,-95.79365601572071,39.41680686648294
674,Nemaha,Nebraska,5475745.37,6024513.16,32668.64,21368.95,39146119.17,-95.8486855796065,40.388137990195496
675,Nance,Nebraska,3676716.56,7431313.16,140885.09,12825.52,43080090.97,-97.9922430202423,41.3973096273992
676,Morrill,Nebraska,4412855.17,28662057.01,9153.05,13259.56,154441114.7,-103.01056303680832,41.7160040110305
677,Merrick,Nebraska,7106077.75,7637751.52,38209.29,25545.35,62673971.67,-98.03778953394043,41.169757193428126
678,Nuckolls,Nebraska,4925773.62,13555879.73,15359.88,16352.51,74761779.62,-98.0471860042336,40.17638440172039
679,Sedgwick,Kansas,27341125.3,15268398.36,1534555.83,1049308.69,120941171.13,-97.46096879607795,37.68476954162969
680,Scott,Kansas,3304346.26,18182809.91,36877.1,17757.63,108908088.96,-100.90684952434651,38.48217198243771
681,Shawnee,Kansas,12357924.02,7474538.65,357686.78,422382.99,54070563.93,-95.75647144812177,39.04152430084572
682,Seward,Kansas,3704436.31,14735177.99,58388.28,52408.24,95638588.52,-100.85130988461823,37.193298524721
683,Sheridan,Kansas,3314030.42,21770088.7,11206.73,10955.27,120884058.62,-100.44182061438786,39.350336508043696
684,Allen,Kansas,8670784.46,10702087.54,67024.88,38463.86,68768652.18,-95.30139619614279,37.8857487896143
685,Morgan,Utah,1582599.23,1978264.41,18101.71,21144.13,2181115.56,-111.5731582766176,41.08932374606823
686,Fremont,Colorado,13443532.77,9823324.84,10774.88,124678.07,25149765.14,-105.43965278659634,38.472966611330925
687,El Paso,Colorado,22293962.45,23594785.02,1558498.92,1080364.33,204125689.69,-104.5255846695983,38.83208537265577
688,Gilpin,Colorado,2080022.97,637661.72,16583.35,17692.24,0.0,-105.52251212672009,39.857526071308826
689,Garfield,Colorado,4796363.11,7927005.42,263089.93,100236.94,12475461.23,-107.90394642034893,39.599315446840976
690,Grand,Colorado,3754377.86,3521573.41,47841.67,28632.4,10074784.17,-106.11826149090513,40.102781064196165
691,Roger Mills,Oklahoma,7208206.08,24736623.96,64592.8,9789.53,128819773.09,-99.69567373070416,35.68839878493883
692,San Joaquin,California,13140500.81,7310482.47,3320035.81,1346295.06,142272736.89,-121.27154490681545,37.93435400411762
693,Blaine,Oklahoma,8897294.23,24089491.61,41859.27,32582.32,123530651.05,-98.43346851113903,35.87524026398621
694,Bryan,Oklahoma,13036130.38,15735239.34,146636.95,117267.84,118218116.42,-96.26002355941199,33.96233103909381
695,Caddo,Oklahoma,19908589.81,31572129.46,126315.6,77301.82,148529021.2,-98.37516119805555,35.174390230309335
696,Canadian,Oklahoma,17086430.57,19963331.87,536427.79,339273.24,120113755.22,-97.98242608211149,35.54259472899652
697,Carter,Oklahoma,11072982.41,14846241.27,251991.44,122456.79,98426120.55,-97.28578581814624,34.25084920816562
698,Vernon,Missouri,12532802.29,12191952.37,57466.6,59986.36,98805202.65,-94.34242635280609,37.85059623096404
699,McCulloch,Texas,7267573.91,25006179.56,38346.11,31160.74,152566016.82,-99.34748912180761,31.198866905392187
700,Walker,Texas,5710441.49,4813810.24,216352.24,94021.59,63368438.6,-95.5722684257227,30.739031427557958
701,Ward,Texas,2245800.74,14739217.37,38745.83,34416.27,145515426.57,-103.10255021600557,31.509486989165367
702,Lynn,Texas,4909755.07,19975662.54,130491.96,18320.94,150277252.82,-101.81612317547363,33.17681232160078
703,Lamar,Texas,12218790.76,12902901.52,163087.43,127634.23,119793673.35,-95.57115690358727,33.66706460132269
704,Knox,Texas,3825829.92,19329080.59,23443.72,13094.6,126833296.08,-99.74143922251912,33.606130088442725
705,Lamb,Texas,7697112.8,23492275.96,290131.96,44091.44,169006990.39,-102.35171088174462,34.068639548373135
706,Seminole,Oklahoma,12630150.15,11621983.83,121697.26,60690.95,69977419.5,-96.6154669275428,35.1676993730444
707,Armstrong,Texas,2508577.13,19692240.89,46641.5,6579.26,100316841.98,-101.3573893098977,34.96492854920269
708,Bailey,Texas,4130161.84,17612607.04,197583.52,19187.72,141355856.72,-102.8298615550905,34.06850900480782
709,Lassen,California,5994484.45,38481090.43,89405.71,63218.19,190270542.46,-120.5942989144956,40.673550629777374
710,Los Angeles,California,32861997.32,2046515.0,37015154.02,14625649.16,5245800.44,-118.22489785944525,34.32308123625904
711,Lake,California,4819324.77,3864262.28,357402.07,149542.66,10832635.24,-122.75316745876755,39.099618516379564
712,Madera,California,10427279.02,12494577.78,777161.51,294134.75,137980310.63,-119.76259411743456,37.218131358491924
713,Wise,Texas,16132122.93,15962675.01,368738.53,142485.02,113152288.9,-97.65442344458812,33.21586784664387
714,Winkler,Texas,725625.82,16083842.88,38798.14,27322.31,147923745.01,-103.04820564225844,31.850045159263253
715,Wood,Texas,9261337.78,3823692.03,246372.85,121820.48,61877761.61,-95.38211109623808,32.786400681252175
716,Weston,Wyoming,4612609.36,30222430.54,16103.02,16341.73,213349256.98,-104.56782719314204,43.84048531918794
717,Uinta,Wyoming,4932896.4,31054396.34,28771.33,40010.06,129020176.77,-110.54760082611095,41.28756075249585
718,Washakie,Wyoming,1701476.04,21075092.73,5568.84,21053.43,92354742.47,-107.68285763818068,43.905000443240404
719,San Benito,California,2165854.61,5421306.22,270724.95,128026.61,25587767.09,-121.07499039974891,36.6056986165165
720,Crawford,Iowa,12879638.35,17192983.93,66346.78,51605.08,39797644.18,-95.38205856299466,42.037219773384294
721,Baylor,Texas,3449735.92,21389886.69,48487.87,15897.43,130825221.35,-99.21353176927057,33.616478287136125
722,Clay,Iowa,10397141.03,11548242.26,70135.01,49896.23,69563232.81,-95.15092643584711,43.082625275965455
723,Otoe,Nebraska,10461850.64,11551522.82,106807.07,48342.29,62177437.33,-96.13476852238576,40.648501530340425
724,Pawnee,Nebraska,4207498.63,9487588.75,11709.9,9494.76,44585946.17,-96.23709829489742,40.131545206591845
725,Phelps,Nebraska,7028242.08,10969407.51,71033.14,28714.73,73112443.63,-99.41454452565806,40.511125827333494
726,Pierce,Nebraska,7743669.27,14564889.04,15757.04,22613.23,69103736.71,-97.60131023501452,42.264428036327814
727,Saline,Kansas,10078221.71,13604688.83,163668.66,157442.97,84129567.89,-97.64997239902502,38.783854586361045
728,Rush,Kansas,3441316.92,16964398.44,16737.35,14380.39,105435304.34,-99.30922740426847,38.52324153986538
729,Russell,Kansas,5011960.66,19640797.0,57870.09,29366.43,97560443.61,-98.76228916811596,38.914812206845816
730,Riley,Kansas,6987123.5,9729988.52,120239.8,104486.2,40442151.52,-96.73524152351943,39.296481712154446
731,Rooks,Kansas,4150339.41,17856899.13,29341.27,18056.91,114918304.15,-99.32503036387577,39.35017870810684
732,Woodbury,Iowa,17150633.57,18687501.21,229116.45,219428.39,59029128.33,-96.0447343915838,42.389710994573676
733,Riverside,California,26451169.68,3599760.34,8725166.43,4965903.12,60539128.15,-115.99380778191829,33.74368745827935
734,Atchison,Kansas,8008213.03,8760579.48,55800.51,45125.66,43692373.82,-95.31284679525758,39.53197411786199
735,Shackelford,Texas,3116793.44,23672218.56,19746.74,12095.11,117228671.76,-99.35407397925509,32.73597742331729
736,Santa Clara,California,6855866.37,2335994.87,8585917.28,3572156.97,11382667.43,-121.69477090797676,37.23159091191779
737,Fannin,Texas,14985730.93,17593931.88,114474.17,87856.68,122303393.2,-96.10662694415471,33.5939199898441
738,Santa Cruz,California,1971473.54,565261.69,1232796.8,520023.14,2922343.9,-122.00175070353471,37.05621296198061
739,Schleicher,Texas,3864857.29,35453866.33,35436.52,9104.48,197975691.58,-100.53855469540892,30.897447327315206
740,San Mateo,California,3840790.27,457310.29,2659131.14,1454997.03,819798.68,-122.3289414018847,37.42198335287367
741,Erath,Texas,17579794.36,20523574.56,144590.87,92580.22,126866115.65,-98.21796613891703,32.2362552996601
742,Jefferson,Colorado,7581818.02,1232306.05,1473732.95,909494.2,2483099.25,-105.25046596006906,39.58636659730902
743,Huerfano,Colorado,11311855.93,21288654.17,24018.96,19674.01,84812765.41,-104.96061593859322,37.6846679561031
744,Jackson,Colorado,3048023.65,6492221.28,8981.92,2813.79,58392400.19,-106.34305822075878,40.666559645811475
745,Gunnison,Colorado,5585611.47,5081121.01,41362.1,28986.69,13680531.38,-107.03173690603623,38.666825014102834
746,Hinsdale,Colorado,2024664.46,178327.05,2071.09,2798.28,0.0,-107.3003094012576,37.8213467223226
747,Madison,Idaho,3327449.89,4808886.34,41169.78,32721.1,35213065.68,-111.6593605152114,43.784212600027715
748,Shasta,California,10845953.82,12503328.19,1268634.09,378664.11,82555957.05,-122.04054845147901,40.763732441261226
749,Placer,California,6835243.91,2829344.56,892569.93,1003493.72,31199144.44,-120.717502596037,39.06356884978807
750,Lincoln,Kansas,3930966.23,16044825.03,11048.69,12228.41,82804347.27,-98.20771151049783,39.04534432479686
751,Atchison,Missouri,5171604.67,10462274.19,36780.71,16245.96,45706650.62,-95.42695643559483,40.43069477932622
752,Andrew,Missouri,8164938.41,7668273.05,52549.1,52657.12,39215343.45,-94.8020217958513,39.98348012053814
753,Coryell,Texas,13217231.2,15979521.89,100702.53,135613.42,92265084.85,-97.79921125637847,31.390903712840924
754,Moody,South Dakota,7768092.04,10656069.22,16967.22,18299.69,65604884.88,-96.67092938584717,44.02202230436762
755,Runnels,Texas,8336265.84,21183169.73,58870.23,36633.19,162214697.07,-99.97623947640304,31.831097225358842
756,Roberts,Texas,1244976.78,22856641.9,35865.45,3574.13,76989871.53,-100.81344642661848,35.8385077662798
757,Robertson,Texas,8843658.81,9822756.74,179474.35,37965.37,108237837.15,-96.51271926402194,31.02711759188015
758,Rockwall,Texas,3929093.98,915697.94,184774.85,243503.63,14093689.59,-96.40776556668696,32.89776722172715
759,Jeff Davis,Texas,2761188.22,32314073.55,11569.43,8253.54,160020926.67,-104.1400263927384,30.7154772694202
760,Bell,Texas,16795651.81,11715779.26,657106.66,616526.67,107950193.52,-97.47820499849233,31.037665845134715
761,Inyo,California,4337704.27,7017750.48,204745.9,45880.94,120222457.68,-117.41075129190511,36.511111445019566
762,Marin,California,4023364.33,1009294.12,1204151.54,634819.36,1915596.81,-122.71826784793782,38.07239679578219
763,Mariposa,California,2251688.8,4435821.04,172016.47,49013.17,8131408.21,-119.90505539657104,37.58155276910127
764,Mendocino,California,11018150.74,7602726.73,614726.93,203285.46,13826815.16,-123.39121900161743,39.44031191328171
765,Merced,California,13331755.26,14314875.06,1061096.6,456358.94,211157702.91,-120.71823774384882,37.19223017439465
766,Modoc,California,6649070.94,22835171.18,76282.19,26814.24,329976480.04,-120.7249713954542,41.589843873250146
767,Butte,Idaho,1727933.83,16750647.63,8514.69,6467.69,163221723.78,-113.17107998542059,43.72329156823065
768,Dickinson,Iowa,7626161.6,6937455.99,56336.3,52234.17,46125223.33,-95.15085217053588,43.37799438082275
769,Meade,Kansas,3786235.37,23164637.71,13602.62,14161.69,140418518.61,-100.36618083082215,37.23822902686717
770,Clark,Kansas,1702789.15,20187206.33,18593.04,7484.3,125908524.68,-99.82029032908387,37.23553468486012
771,Clay,Kansas,6896074.9,14451523.37,17528.21,32886.51,84025998.66,-97.16518886902072,39.34972320499495
772,Cherokee,Kansas,10636499.88,11112287.24,48367.82,58520.62,76601788.16,-94.84626374987114,37.169312658329545
773,Cheyenne,Kansas,2420780.25,22980479.98,9556.63,11654.7,117283836.31,-101.73114852900925,39.78588101197833
774,Cloud,Kansas,5967249.26,16118510.73,25574.38,34640.06,90960587.97,-97.64929928341536,39.480349192186935
775,Delta,Colorado,3317684.94,2270188.35,93784.42,69448.45,29727920.83,-107.86290681777541,38.86133669326578
776,Tulsa,Oklahoma,16891960.67,3543570.0,2717027.68,1992741.34,41839185.43,-95.94147761613371,36.121076634989215
777,Tillman,Oklahoma,4647353.45,19620390.28,61262.33,24705.24,136091417.16,-98.92434665179057,34.37289962311509
778,Uintah,Utah,3668912.06,30587097.6,48243.72,66428.0,182290073.36,-109.51862869697023,40.1246696774406
779,Utah,Utah,9812961.29,5454853.19,593734.19,711942.27,52803940.88,-111.6706226252471,40.11951703132833
780,Kiowa,Kansas,3074867.64,19440729.69,19699.18,8206.56,101507791.92,-99.2860007244941,37.55826738278374
781,Lake,Oregon,6988833.8,76316528.03,32895.19,12793.52,474147178.0,-120.38745847100778,42.79339607911363
782,Kearny,Kansas,2480548.94,21397449.13,13007.13,10358.29,136092517.12,-101.31983962938463,38.00019080645928
783,Fresno,California,22448276.77,30399008.12,4471613.99,1624094.45,395726126.61,-119.65038059499676,36.75841098150994
784,El Dorado,California,5594817.46,3237101.73,783340.81,546853.17,4000633.33,-120.5248362126989,38.77856722023417
785,Contra Costa,California,8687259.41,955761.57,3753523.41,2420653.15,12296068.17,-121.9262635451666,37.91915258997117
786,Colusa,California,4168345.44,9571670.59,223511.73,48354.85,94610559.63,-122.23703277112706,39.17758051650175
787,Osceola,Iowa,7226553.22,8880167.7,30873.57,19399.98,51678687.05,-95.62374900475199,43.37856826780522
788,Emmet,Iowa,6778307.78,7875319.7,32943.1,30459.67,48702735.14,-94.67847495153126,43.37803133234713
789,Gray,Kansas,5624466.14,23480630.55,44180.83,15885.9,135112001.31,-100.43784946973324,37.73823226019234
790,Denton,Texas,16602889.58,8772130.88,2163291.9,1802373.47,89247021.23,-97.11722775491957,33.20429859415201
791,Phillips,Kansas,4796351.96,15743101.5,22553.56,21819.55,101731647.09,-99.34690775299066,39.784552649740576
792,Madison,Nebraska,9610762.77,12710862.57,51792.04,95072.41,64633705.98,-97.60077537410997,41.91670098787573
793,Ottawa,Kansas,5247874.22,15255210.76,26583.96,23141.22,91526055.26,-97.65024112707071,39.132565030620306
794,Osborne,Kansas,3544592.83,19875740.6,14877.93,14011.03,110188498.0,-98.76796409564187,39.350351777466436
795,Logan,Nebraska,1507670.39,12270904.94,1597.87,2289.74,62333253.73,-100.4828583218772,41.5664901616667
796,Lincoln,Nebraska,13227096.54,55168410.34,104886.92,110973.9,265991091.77,-100.7452184697459,41.047777023069074
797,McPherson,Nebraska,1478021.45,20493093.22,1468.27,1533.67,88852744.5,-101.06053605175788,41.56808763094013
798,Loup,Nebraska,1890229.3,12250221.67,2097.21,2133.28,67257901.87,-99.4544205496551,41.91384485313652
799,Gove,Kansas,3637478.64,24870499.88,22972.49,11110.01,150992965.92,-100.48292353087248,38.91606554755362
800,Pottawatomie,Kansas,11076083.53,18016846.44,70243.31,66309.91,72953898.06,-96.34246888500101,39.37899604952353
801,Kern,California,27044669.34,24549395.48,3729934.29,1791822.42,422401015.18,-118.72981990814301,35.34292758696463
802,Prowers,Colorado,5602355.2,35903062.09,46705.35,41278.41,254714619.14,-102.39333365289069,37.95517779018118
803,Ouray,Colorado,2058666.51,2001392.77,11167.5,10807.99,5216527.79,-107.76930859807881,38.15545171118565
804,Park,Colorado,18642685.48,11125526.61,30505.85,58607.94,58688577.97,-105.71720135145684,39.11928516735745
805,Phillips,Colorado,3718508.0,15913370.01,37780.36,11437.95,102903554.3,-102.35753556448212,40.59386583077307
806,Pitkin,Colorado,2831281.43,154196.77,95605.16,23692.28,525365.18,-106.91652323558996,39.21711202338923
807,Mesa,Colorado,8771655.4,9967921.81,265492.19,327362.62,67349537.69,-108.46646833413172,39.01827654393904
808,Logan,Colorado,8630600.24,35618041.03,99708.1,45126.09,253498047.55,-103.11009078167929,40.72469042715789
809,Lincoln,Colorado,4733962.19,49271728.33,24752.05,10249.83,389193824.57,-103.51396921559179,38.988055660324726
810,Las Animas,Colorado,10345352.5,71236567.06,39573.81,34298.77,390123684.43,-104.03870308789449,37.3158551358255
811,Mineral,Colorado,1081890.97,30440.53,5205.16,3366.14,0.0,-106.92409059648104,37.66899351961271
812,Texas,Oklahoma,8491408.92,49735588.48,213783.72,48105.73,301732291.18,-101.49003826934042,36.74790990088175
813,Rogers,Oklahoma,12830133.02,11680490.17,284645.39,244925.7,76887525.55,-95.60436723071945,36.3715819145754
814,Stephens,Oklahoma,15735955.61,19190026.36,182548.71,138607.78,118179497.02,-97.85147410445812,34.48560443967132
815,Sequoyah,Oklahoma,8168296.38,6925512.91,104474.66,100558.43,46281921.48,-94.75526430221235,35.49536065335627
816,McDonald,Missouri,8979474.18,7784606.6,42036.1,53850.91,23655028.16,-94.34839153618366,36.62872759319786
817,Beaver,Oklahoma,7518493.97,44858836.41,104428.54,16172.69,262052493.24,-100.47677365929559,36.749699951419444
818,Atoka,Oklahoma,10204772.17,14609630.14,74310.62,33116.61,90200794.8,-96.03783379773603,34.37370522406097
819,Alfalfa,Oklahoma,5292277.72,18640543.55,49634.08,17406.69,123507788.56,-98.32398647528423,36.731012416111014
820,Adair,Oklahoma,10011944.09,7825487.48,56180.11,51457.31,26513078.5,-94.65872475968708,35.88395124534886
821,Beckham,Oklahoma,9338734.15,19839160.0,197278.59,57444.62,121895148.84,-99.6819441808533,35.268696214970376
822,Cassia,Idaho,7800750.63,23958945.29,54230.46,40355.52,159474790.4,-113.60036861392696,42.28387477717093
823,Plumas,California,3470437.11,8496492.37,143748.18,59132.73,22614972.8,-120.8385703264344,40.00468463394222
824,Trinity,California,3633580.96,2016336.78,27366.95,30328.16,1248273.16,-123.11263026459494,40.650690504220876
825,Yavapai,Arizona,19113265.06,47271027.98,186766.42,662613.35,304172518.84,-112.55388028460668,34.599895998485536
826,Pinal,Arizona,15684506.36,40762931.85,297987.28,916644.42,546755182.22,-111.3447077342495,32.9043653115911
827,Santa Cruz,Arizona,4992265.9,4869203.94,35929.93,118787.54,32258438.01,-110.84652759967886,31.52609111293427
828,Rich,Utah,1669333.43,9412506.63,14038.06,3966.15,32419939.39,-111.24445276923463,41.63231168614313
829,Van Zandt,Texas,12799210.84,8798049.01,149944.02,142695.05,101411570.38,-95.8365768122342,32.56372915331364
830,Upton,Texas,1688194.68,28313656.46,24346.79,10370.62,198716677.81,-102.0430506588036,31.368810645107274
831,Sacramento,California,8273595.44,2056346.77,5021165.08,2743789.15,77447063.41,-121.34375386880427,38.44925472089525
832,Boise,Idaho,3007891.77,2378125.36,8120.57,16412.63,618725.6,-115.73019053713264,43.98911137769615
833,Blaine,Idaho,4377229.04,8041584.26,22871.54,41063.96,75789663.44,-113.97987061899434,43.41240854945412
834,Bingham,Idaho,10784587.46,29799095.01,55654.23,80144.29,208189394.5,-112.39803890323093,43.216526422207124
835,Bonneville,Idaho,10365724.82,11901123.6,131103.53,183023.16,80991944.45,-111.6149229672769,43.38774227175783
836,Sanpete,Utah,3949928.98,5183437.64,34722.86,50130.26,43474905.37,-111.57636805292297,39.37394871867394
837,Kent,Texas,1733543.95,19376080.48,24794.76,3059.89,116208178.3,-100.77756789087904,33.18140758987832
838,King,Texas,869890.32,20688641.6,8929.54,333.11,111864005.51,-100.25585347151731,33.61647905922623
839,Archer,Texas,6015995.59,22523988.82,43952.46,30588.06,136427424.46,-98.68768819683525,33.61534665315935
840,Mitchell,Texas,4312006.33,18293288.74,39084.82,23221.57,142477205.96,-100.92122740101031,32.30620562851297
841,Anderson,Texas,10919866.91,3863768.43,190641.68,111513.08,85129767.24,-95.65250921544258,31.813342990170387
842,Andrews,Texas,1924160.61,33147717.77,55279.18,48724.67,260067235.72,-102.63781871500103,32.30503707035043
843,Angelina,Texas,6132712.91,3551141.63,194998.3,180709.39,55517105.54,-94.61181287535089,31.25480864150227
844,Perkins,Nebraska,3619716.67,21570827.9,18666.18,11269.06,130953923.78,-101.64956534346653,40.8509242489692
845,Racine,Wisconsin,7150875.14,2518853.08,490816.68,460237.36,30264366.5,-88.06113266390201,42.747455443371194
846,Richland,Wisconsin,9464607.27,6247851.54,55630.28,45531.96,10857749.92,-90.42947868019624,43.375620518104824
847,Rock,Wisconsin,14976119.98,8667209.78,304933.03,357300.02,71011621.83,-89.07156503952011,42.67121777990716
848,Addison,Vermont,8845423.34,3395019.13,146900.42,58456.21,23525822.27,-73.14064765044033,44.03063741548394
849,Laclede,Missouri,13222911.54,10296239.2,97360.59,83575.13,43979409.47,-92.59032809726172,37.65832189861398
850,Champaign,Illinois,19274677.38,17213818.43,193825.19,368731.37,125242713.28,-88.1992024658262,40.140080843033566
851,Knox,Missouri,5399007.88,8810851.06,19063.24,11431.51,57331194.98,-92.14809751397843,40.12824079311869
852,Cass,Illinois,4685403.89,4766969.74,24069.32,33689.01,38489005.74,-90.24740346544317,39.973575803616235
853,Carroll,Illinois,8556155.15,7623222.0,142602.86,50888.91,40465482.54,-89.93435750016612,42.06865706973555
854,Calhoun,Illinois,3463299.27,1905880.77,3745.57,14289.06,9422062.16,-90.66747205859787,39.16917769195206
855,Bureau,Illinois,15469700.93,16388319.73,158218.02,101719.39,103036389.14,-89.52867596451459,41.40410238506937
856,Bamberg,South Carolina,4225262.94,519034.9,22180.97,31762.11,35770224.08,-81.05419069583962,33.21477133549719
857,Aiken,South Carolina,11048600.72,4414212.72,245298.8,361184.51,85110734.82,-81.63488289883178,33.544295147357964
858,Abbeville,South Carolina,3654501.22,3780294.88,59636.61,57338.71,37222866.92,-82.45870886541468,34.22256591029628
859,Anderson,South Carolina,8181242.63,5194656.29,278802.79,416529.01,60112886.87,-82.63786442176995,34.519082539231434
860,Allendale,South Carolina,2616986.16,895755.61,23056.07,15492.95,35409224.21,-81.35815167660938,32.98808451791674
861,Covington,Alabama,9400019.53,7618356.35,133040.86,103172.01,83360225.93,-86.45123604488721,31.24851579532335
862,Marquette,Wisconsin,7815730.95,1591921.76,29982.34,46996.15,32459324.05,-89.39878916337571,43.819597949919284
863,Manitowoc,Wisconsin,16209877.37,6114681.32,371873.09,207950.75,55411681.63,-87.80960311099857,44.11991040014539
864,Coffee,Alabama,6630208.47,4994372.37,119146.36,110939.79,57655972.5,-85.9882046751992,31.40263783271015
865,Colbert,Alabama,5643112.55,4938673.15,224082.5,139657.54,34432357.52,-87.80499493873148,34.70043995367011
866,Conecuh,Alabama,6760782.57,6032230.91,30882.17,26777.6,81084399.91,-86.99370811445878,31.429350281295232
867,Milwaukee,Wisconsin,6411754.28,28662.12,1572748.34,1163429.48,2614077.78,-87.96664942274654,43.007123195691605
868,Coosa,Alabama,4420429.41,5259671.63,14897.43,23409.44,29318444.08,-86.24766622545249,32.936230573434564
869,Smith,Mississippi,5993747.86,3209729.97,26832.85,39220.67,35825249.4,-89.50667484513842,32.01769006560071
870,Scott,Mississippi,5838006.74,2023218.89,167144.2,52211.11,25073196.44,-89.53763832155282,32.406371658411594
871,Rankin,Mississippi,7354568.62,2641620.19,421607.02,385058.56,66305747.42,-89.9458238264481,32.26408521091613
872,Simpson,Mississippi,6215668.77,3865593.65,73189.51,58595.17,53970350.14,-89.91951563776065,31.913171622333437
873,Sharkey,Mississippi,1880106.5,2598132.62,21054.69,8653.72,34201391.38,-90.81322898701323,32.87971633970489
874,Itawamba,Mississippi,5290418.0,3241198.33,64018.99,54451.47,27585386.23,-88.3613149070589,34.27999411811512
875,Issaquena,Mississippi,1078996.01,1797563.32,3676.04,1756.97,28121587.2,-90.98914853552566,32.74138755155093
876,Luzerne,Pennsylvania,12644161.86,5163633.76,647517.84,529384.58,10682127.39,-75.98896804470986,41.17712283831788
877,Holmes,Mississippi,5446706.73,4434487.29,48320.96,26821.81,68206058.2,-90.09213302127309,33.12352580889525
878,Lehigh,Pennsylvania,7247028.91,1555945.02,808097.47,425868.35,6458096.64,-75.59244317447101,40.6127760140831
879,Lebanon,Pennsylvania,6476883.96,2331903.21,349024.16,251429.8,17825279.27,-76.45774417611074,40.367207882606024
880,Dorchester,Maryland,8623816.25,1103544.84,96840.84,81129.16,28488943.33,-76.00700977953178,38.481501460308685
881,Floyd,Indiana,2222975.73,1046469.14,167225.45,187974.78,6705521.9,-85.90700306924423,38.319053776032845
882,Onslow,North Carolina,5162990.04,1241873.02,199829.9,264669.16,41156706.76,-77.43430348868935,34.737664559937215
883,Northampton,North Carolina,5161642.54,3149880.68,71982.86,40839.28,53420998.13,-77.39676908108557,36.417659540361434
884,Pamlico,North Carolina,3074514.28,792070.08,11956.74,27564.0,18963660.7,-76.74930688013288,35.14112590754049
885,Orange,North Carolina,4658492.12,2947278.71,319161.05,194783.56,30659634.67,-79.12047662113584,36.06137936537126
886,Pasquotank,North Carolina,2022300.31,1637003.79,97128.8,69731.3,19082676.99,-76.28670042793856,36.297331477027754
887,Craven,North Carolina,6147574.95,1642462.92,292031.52,189955.5,40017910.71,-77.09598465659067,35.12524267338279
888,Clay,North Carolina,1418584.81,387754.39,22378.98,26076.41,243257.69,-83.75020692801495,35.05722465107328
889,Chowan,North Carolina,1670982.94,793362.7,39675.05,28448.87,15183831.34,-76.60811766940773,36.15051728642453
890,Steele,Minnesota,9852309.17,8147551.65,188325.3,103944.52,50153233.85,-93.2260535370869,44.02232542655149
891,Columbus,North Carolina,10088184.13,2561724.01,108110.0,101921.97,82944864.28,-78.65509486227154,34.26544250381304
892,Cleveland,North Carolina,4810916.34,3199285.47,326986.39,206701.98,33502519.68,-81.55547817700656,35.334021835277085
893,Carroll,Maryland,7614404.06,3051316.67,658048.02,432463.95,16440626.68,-77.02260546793084,39.563043048057146
894,Owsley,Kentucky,1992773.42,1075964.13,1063.39,7253.49,103382.19,-83.68310981997645,37.419209966156934
895,Oldham,Kentucky,1869142.79,880713.08,115549.03,141633.41,11952510.9,-85.44843250701516,38.399459140371846
896,Owen,Kentucky,2647895.73,4351526.33,39153.45,20760.42,7376020.75,-84.828071697679,38.51966687373043
897,Nicholas,Kentucky,2255429.69,2709096.96,16417.77,13595.13,3910181.62,-84.01534326346389,38.33556486364512
898,Ohio,Kentucky,6418622.97,5814927.08,215813.44,52751.41,32289879.41,-86.8489430740727,37.47817768919142
899,Lapeer,Michigan,11706800.38,4998273.47,478673.12,203523.06,61150761.99,-83.22176121359533,43.09012587553292
900,Lake,Michigan,7203139.34,3937436.77,23770.95,26672.88,18155293.15,-85.8016963034212,43.989998713189564
901,Kent,Michigan,15998966.55,3858840.79,1060695.2,1433635.33,57032334.45,-85.54926605970992,43.032163760447524
902,Worcester,Maryland,8003656.19,735140.58,176465.76,113938.11,24882419.61,-75.35655990214282,38.220028723469426
903,Waseca,Minnesota,8676915.06,8516540.11,88047.96,44422.32,49581533.59,-93.58730994585588,44.02210749761838
